,suites,rooms,dorms,bwc,parking_spaces,private_area,total_area,total,variation,apartment,floor,dream_property,mcmv,academic_regions,digital_fair,subtype_name,lot,block,tags,royalty_value,latitude,longitude,address.complete,address.street,address.number,address.neighborhood,address.city,address.uf,address.complement
0,1,,0,1,1,"21,71","54,00","169.000,00",0,307,3,0,0,0,False,Apartamento,,,[],0,-23.4094169,-51.9429957,"Rua Bragança, 43 - Zona 07, Maringá - PR",Rua Bragança,43,Zona 07,Maringá,PR,
1,0,,2,1,1,"47,00","0,00","250.000,00",0,,,0,0,0,False,Apartamento,,,[],0,,,"Avenida Pioneiro Antonio Ruiz Saldanha,  - Parque Industrial, Maringá - PR",Avenida Pioneiro Antonio Ruiz Saldanha,,Parque Industrial,Maringá,PR,
2,1,,1,2,1,"53,50","103,00","288.574,34",0,,3,0,0,0,False,Apartamento,,,"[{'name': 'Aceita permuta', 'order': 7}]",1,-23.4154856,-51.9292466,"Rua Marechal Floriano Peixoto, 237, fundos - vista p/ catedral - Zona 07, Maringá - PR",Rua Marechal Floriano Peixoto,237,Zona 07,Maringá,PR,fundos - vista p/ catedral
3,0,,2,1,1,"54,24","78,48","300.000,00",0,807,8,0,0,1,False,Apartamento,,,"[{'name': 'Financiável', 'order': 6}]",0,-23.4019932,-51.9303597,"Rua Olímpio Mendes da Rocha, 355 - Vila Esperança, Maringá - PR",Rua Olímpio Mendes da Rocha,355,Vila Esperança,Maringá,PR,
4,1,,2,2,1,"68,71","88,75","309.000,00",0,12,1,0,0,0,False,Apartamento,,,"[{'name': 'Financiável', 'order': 6}]",0,-23.43525870420274,-51.925595052639764,"Rua Marciano Halchuk, 356, bloco g - Vila Bosque, Maringá - PR",Rua Marciano Halchuk,356,Vila Bosque,Maringá,PR,bloco g
5,1,,2,0,1,"85,00","0,00","310.000,00",0,,,0,0,0,False,Apartamento,,,[],0,-23.4143524169921880000000000,-51.9362335205078100000000000,",  - Zona 07, Maringá - PR",,,Zona 07,Maringá,PR,
6,0,,2,1,1,"49,00","60,00","330.000,00",0,,6,0,0,0,False,Apartamento,,,[],0,,,"Avenida Pioneiro Antonio Ruiz Saldanha, 1733, 605 - Jardim das Estações, Maringá - PR",Avenida Pioneiro Antonio Ruiz Saldanha,1733,Jardim das Estações,Maringá,PR,605
7,0,,2,2,2,"0,00","114,00","330.000,00",0,,,0,0,0,False,Casa,,,[],0,-23.3870424,-51.9004748,"Rua Pioneiro José de Paula, 396 - Jardim Novo Alvorada, Maringá - PR",Rua Pioneiro José de Paula,396,Jardim Novo Alvorada,Maringá,PR,
8,0,,1,1,1,"32,00","68,00","335.000,00",0,,,0,0,0,False,Apartamento,,,[],0,-23.4138577,-51.9416863,"Rua Campos Sales, 210, apto 303 - Zona 07, Maringá - PR",Rua Campos Sales,210,Zona 07,Maringá,PR,apto 303
9,1,,0,1,1,"52,38","68,21","336.400,00",0,02,Térreo,0,0,0,False,Apartamento,,,[],0,-23.453121369942636,-51.93736692009887,"Rua Pioneiro Marcelino Girotto, 85 - Jardim Itália II, Maringá - PR",Rua Pioneiro Marcelino Girotto,85,Jardim Itália II,Maringá,PR,
10,0,,2,1,1,"46,73","89,00","340.000,00",0,602,6º,0,0,0,False,Apartamento,,,"[{'name': 'Financiável', 'order': 6}]",0,-23.425370700000002,-51.92438560000001,"Rua Marcílio Dias,  - Zona 03, Maringá - PR",Rua Marcílio Dias,,Zona 03,Maringá,PR,
11,0,,2,1,1,"59,00","95,00","340.000,00",0,,5,0,0,0,False,Apartamento,,,[],0,-13.90108184065817,-50.713421874999995,"Rua Assunção, 507 - Vila Marumby, Maringá - PR",Rua Assunção,507,Vila Marumby,Maringá,PR,
12,0,,3,2,1,"74,69","108,02","349.000,00",0,,,0,0,0,False,Apartamento,,,"[{'name': 'Financiável', 'order': 6}]",0,-23.416024699999983,-51.9293337,"Rua Marechal Deodoro, 674 - Zona 07, Maringá - PR",Rua Marechal Deodoro,674,Zona 07,Maringá,PR,
13,1,,2,2,1,"0,00","78,64","369.000,00",0,,,0,0,0,False,Casa,,,"[{'name': 'Financiável', 'order': 6}]",0,-23.37701299999999,-51.95159800000001,"Rua Edézio de Almeida Lima, 160 - Jardim Monte Rei, Maringá - PR",Rua Edézio de Almeida Lima,160,Jardim Monte Rei,Maringá,PR,
14,0,,2,1,1,"55,00","0,00","370.000,00",0,,,0,0,0,False,Apartamento,,,[],0,-23.44786400,-51.92000300,"Rua Ernesto Mariucci, 442 - Jardim Aclimação, Maringá - PR",Rua Ernesto Mariucci,442,Jardim Aclimação,Maringá,PR,
15,0,,2,1,1,"55,17","104,40","375.000,00",0,1301,13,0,0,1,False,Apartamento,,,"[{'name': 'Financiável', 'order': 6}]",0,-23.4075546,-51.94549940000002,"Rua Jangada, 403 - Zona 07, Maringá - PR",Rua Jangada,403,Zona 07,Maringá,PR,
16,1,,1,2,1,"59,00","0,00","380.000,00",0,,,0,0,0,False,Apartamento,,,[],0,-23.41762400,-51.95667000,"Rua Rui Barbosa, 1262 - Zona 07, Maringá - PR",Rua Rui Barbosa,1262,Zona 07,Maringá,PR,
17,1,,2,2,2,"0,00","94,00","385.000,00",0,,,0,0,0,False,Casa,,,[],0,-23.3791198730468750000000000,-51.9273986816406250000000000,"Rua Allan Kardec,  - Parque Avenida, Maringá - PR",Rua Allan Kardec,,Parque Avenida,Maringá,PR,
18,0,,3,2,2,"0,00","120,00","390.000,00",0,,,0,0,0,False,Casa,,,[],0,-23.4571330835944850000000000,-51.9352184617414200000000000,"Rua Galáxia,  - Jardim Universo, Maringá - PR",Rua Galáxia,,Jardim Universo,Maringá,PR,
19,1,,2,2,1,"108,24","154,38","390.000,00",0,301,3º,0,0,0,False,Apartamento,,,[],0,-23.4263053,-51.93331329999999,"Avenida São Paulo, 1506 - Zona 02, Maringá - PR",Avenida São Paulo,1506,Zona 02,Maringá,PR,
20,1,,2,3,2,"0,00","127,00","398.000,00",0,,,0,1,0,False,Casa,,,"[{'name': 'Financiável', 'order': 6}]",0,-23.4209995,-51.9330558,"Rua Clodimar Pedrosa Lô, 571 - Loteamento Madrid, Maringá - PR",Rua Clodimar Pedrosa Lô,571,Loteamento Madrid,Maringá,PR,
21,1,,2,2,2,"0,00","80,00","400.000,00",0,,,0,0,0,False,Casa,,,[],0,,,"Rua Orlândia,  - Parque das Laranjeiras, Maringá - PR",Rua Orlândia,,Parque das Laranjeiras,Maringá,PR,
22,1,,1,2,0,"52,00","0,00","406.000,00",0,,,0,0,0,False,Apartamento,,,[],0,-23.4075577551488830000000000,-51.9457239753560200000000000,"Rua Jangada,  - Zona 07, Maringá - PR",Rua Jangada,,Zona 07,Maringá,PR,
23,1,,2,2,0,"99,00","0,00","420.000,00",0,,,0,0,0,False,Apartamento,,,[],0,-23.4156225,-51.9308138,"Rua Marechal Deodoro, 820, 302 - Zona 07, Maringá - PR",Rua Marechal Deodoro,820,Zona 07,Maringá,PR,302
24,1,,2,2,2,"0,00","79,00","420.000,00",0,,,0,0,0,False,Casa,,,[],0,,,"Rua Porto Seguro,  - Conjunto João de Barro Itaparica, Maringá - PR",Rua Porto Seguro,,Conjunto João de Barro Itaparica,Maringá,PR,
25,0,,2,3,3,"0,00","99,00","424.000,00",0,,,0,0,0,False,Casa,,,[],0,-23.3918946674402160000000000,-51.9398920040716400000000000,"Rua Bonsai,  - Jardim Imperial II, Maringá - PR",Rua Bonsai,,Jardim Imperial II,Maringá,PR,
26,0,,2,1,1,"55,00","0,00","425.000,00",0,705,,0,0,0,False,Apartamento,,,[],0,-23.4468027,-51.9194791,"Rua Ernesto Mariucci, 366, torre ""b - Jardim Aclimação, Maringá - PR",Rua Ernesto Mariucci,366,Jardim Aclimação,Maringá,PR,"torre ""b"
27,1,,2,2,3,"0,00","150,00","430.000,00",0,,,0,0,0,False,Casa,,,[],0,-23.3802534,-51.9670731,"Rua Pioneiro Salvador Kessa, 999 - Jardim Rebouças, Maringá - PR",Rua Pioneiro Salvador Kessa,999,Jardim Rebouças,Maringá,PR,
28,1,,2,2,2,"0,00","96,00","430.000,00",0,,,0,0,0,False,Casa,,,[],0,-23.4077589242723580000000000,-51.8688073915167960000000000,"Rua Francisco Dias de Aro,  - Jardim Paulista III, Maringá - PR",Rua Francisco Dias de Aro,,Jardim Paulista III,Maringá,PR,
29,0,,2,1,1,"54,00","0,00","440.000,00",0,,,0,0,0,False,Apartamento,,,[],0,-23.4466550344735200000000000,-51.9195971212643000000000000,"Rua Ernesto Mariucci,  - Jardim Aclimação, Maringá - PR",Rua Ernesto Mariucci,,Jardim Aclimação,Maringá,PR,
30,1,,2,2,1,"0,00","102,00","440.000,00",0,,,0,0,0,False,Casa,,,[],0,-23.3947648,-51.9361207,"Rua Netuno, 52, b - Jardim Imperial II, Maringá - PR",Rua Netuno,52,Jardim Imperial II,Maringá,PR,b
31,1,,1,2,1,"51,40","103,83","449.500,00",0,1701,17,0,0,0,False,Apartamento,,,"[{'name': 'Aceita permuta', 'order': 7}]",0,-23.422560700000002,-51.9410905,"Rua Neo Alves Martins, 2814, ap 1701 - Zona 01 Centro, Maringá - PR",Rua Neo Alves Martins,2814,Zona 01 Centro,Maringá,PR,ap 1701
32,1,,2,2,2,"0,00","110,00","450.000,00",0,,,0,0,0,False,Casa,,,[],0,-23.3752709823758500000000000,-51.9624342040721700000000000,"Rua Limeira,  - Residencial Ícaro, Maringá - PR",Rua Limeira,,Residencial Ícaro,Maringá,PR,
33,1,,2,2,3,"0,00","114,00","450.000,00",0,,,0,0,0,False,Casa,,,[],0,-23.3749899959781470000000000,-51.9245484663776650000000000,"Rua Eloi Moreira de Souza,  - Jardim Dias I, Maringá - PR",Rua Eloi Moreira de Souza,,Jardim Dias I,Maringá,PR,
34,1,,2,2,0,"0,00","90,00","456.000,00",0,,,0,0,0,False,Casa,,,[],0,-23.4115506965907230000000000,-51.9654705040709900000000000,"Rua Pioneira Rosa Portela da Silva,  - Jardim Montreal, Maringá - PR",Rua Pioneira Rosa Portela da Silva,,Jardim Montreal,Maringá,PR,
35,1,,1,2,1,"51,00","105,00","459.000,00",0,,7,0,0,0,False,Apartamento,,,[],0,-23.4144461,-51.9301031,"Rua Francisco Glicério, 787, ap 704 - Zona 07, Maringá - PR",Rua Francisco Glicério,787,Zona 07,Maringá,PR,ap 704
36,1,,2,2,3,"0,00","110,00","459.000,00",0,,,0,0,0,False,Casa,,,[],0,-23.4026121,-51.9252037,"Rua Marechal Mascarenhas de Moraes, 286, esquina - Jardim Alvorada, Maringá - PR",Rua Marechal Mascarenhas de Moraes,286,Jardim Alvorada,Maringá,PR,esquina
37,1,,2,0,2,"0,00","112,00","460.000,00",0,,,0,0,0,False,Casa,,,[],0,-23.4087020125966170000000000,-51.8652695042926100000000000,"Rua Pioneiro Walcyr Baveloni,  - Jardim Paulista III, Maringá - PR",Rua Pioneiro Walcyr Baveloni,,Jardim Paulista III,Maringá,PR,
38,1,,1,2,1,"64,00","101,00","460.000,00",0,,9,0,0,0,False,Apartamento,,,[],0,-23.4129760,-51.9450813,"Rua Marquês de Abrantes, , 901 - Zona 07, Maringá - PR",Rua Marquês de Abrantes,,Zona 07,Maringá,PR,901
39,0,,3,1,2,"0,00","220,00","460.000,00",0,,,0,0,0,False,Casa,,,[],0,-23.4152644,-51.9086780,"Rua Guadalajara, 837, casa - Vila Morangueira, Maringá - PR",Rua Guadalajara,837,Vila Morangueira,Maringá,PR,casa
40,1,,2,3,1,"120,00","173,00","460.000,00",0,,3,0,0,0,False,Apartamento,,,[],0,-23.4105825,-51.9327142,"Rua 10 de Maio, 99, ap 302 - Zona 07, Maringá - PR",Rua 10 de Maio,99,Zona 07,Maringá,PR,ap 302
41,2,,0,0,2,"0,00","117,00","479.000,00",0,,,0,0,0,False,Casa,,,"[{'name': 'Aceita permuta', 'order': 7}]",0,-23.3865183096803200000000000,-51.9234477482509900000000000,"Rua Pioneiro José Garbieri,  - Jardim Tóquio, Maringá - PR",Rua Pioneiro José Garbieri,,Jardim Tóquio,Maringá,PR,
42,1,,1,2,1,"52,00","104,00","479.000,00",0,,,0,0,0,False,Apartamento,,,[],0,-23.4226284027099600000000000,-51.9410324096679700000000000,"Rua Neo Alves Martins,  - Zona 01 Centro, Maringá - PR",Rua Neo Alves Martins,,Zona 01 Centro,Maringá,PR,
43,1,,2,2,2,"0,00","93,00","480.000,00",0,,,0,0,0,False,Casa,,,[],0,-23.4094331014797850000000000,-51.8695790471566400000000000,"Rua Hypólito Nogueira Porto,  - Conjunto Habitacional Requião, Maringá - PR",Rua Hypólito Nogueira Porto,,Conjunto Habitacional Requião,Maringá,PR,
44,1,,2,2,2,"0,00","103,00","480.000,00",0,,,0,0,0,False,Casa,,,[],0,-23.3942017,-51.8994091,"Rua Rio Amazonas, 45 - Conjunto Residencial Paulino Carlos Filho, Maringá - PR",Rua Rio Amazonas,45,Conjunto Residencial Paulino Carlos Filho,Maringá,PR,
45,1,,2,2,1,"85,00","85,00","480.000,00",0,,,0,0,0,False,Apartamento,,,[],0,-51.9201683,-23.41776150000001,",  - Zona 07, Maringá - PR",,,Zona 07,Maringá,PR,
46,1,,2,2,2,"75,00","105,00","490.000,00",0,1002,10,0,0,1,False,Apartamento,,,[],0,-23.4384993,-51.9272058,"Rua Mem de Sá, 1703, torre b - Vila Bosque, Maringá - PR",Rua Mem de Sá,1703,Vila Bosque,Maringá,PR,torre b
47,0,,3,2,2,"0,00","148,00","491.000,00",0,,,0,0,0,False,Casa,,,[],0,-23.4199576293944460000000000,-51.8816581040707800000000000,"Rua Barcelona,  - Jardim Atlanta, Maringá - PR",Rua Barcelona,,Jardim Atlanta,Maringá,PR,
48,1,,2,2,2,"0,00","105,00","495.000,00",0,,,0,0,0,False,Casa,,,[],0,-23.3817963,-51.96009,"Rua Pioneira Norvina Maria Gonçalves, 902 - Jardim Império do Sol, Maringá - PR",Rua Pioneira Norvina Maria Gonçalves,902,Jardim Império do Sol,Maringá,PR,
49,1,,2,2,2,"0,00","183,00","498.000,00",0,,,0,0,0,False,Casa,,,[],0,-23.423648500000006,-51.889615400000004,"Rua Amílcar Vecchi, 574 - Jardim América, Maringá - PR",Rua Amílcar Vecchi,574,Jardim América,Maringá,PR,
50,1,,1,2,1,"64,00","105,00","499.000,00",0,,,0,0,0,False,Apartamento,,,[],0,-23.4473886,-51.9118081,"Avenida Senador Petrônio Portela, 1021, apto 304 - Jardim Aclimação, Maringá - PR",Avenida Senador Petrônio Portela,1021,Jardim Aclimação,Maringá,PR,apto 304
51,1,,2,2,1,"70,00","0,00","500.000,00",0,,,0,0,0,False,Apartamento,,,[],0,-23.4136026569826400000000000,-51.9323118906971700000000000,"Rua Francisco Glicério,  - Zona 07, Maringá - PR",Rua Francisco Glicério,,Zona 07,Maringá,PR,
52,1,,1,2,0,"55,00","0,00","504.000,00",0,,,0,0,0,False,Apartamento,,,[],0,-23.4138141843188700000000000,-51.9338888753558900000000000,"Rua Marechal Floriano Peixoto,  - Zona 07, Maringá - PR",Rua Marechal Floriano Peixoto,,Zona 07,Maringá,PR,
53,1,,1,2,1,"60,00","0,00","506.000,00",0,,,0,0,0,False,Apartamento,,,[],0,,,"Rua Professora Maria Cleusa Milléo Romano,  - Jardim Santa Rosa, Maringá - PR",Rua Professora Maria Cleusa Milléo Romano,,Jardim Santa Rosa,Maringá,PR,
54,0,,1,1,1,"52,00","104,00","509.000,00",0,,,0,0,0,False,Apartamento,,,[],0,-23.4226284027099600000000000,-51.9410324096679700000000000,"Rua Neo Alves Martins,  - Zona 01 Centro, Maringá - PR",Rua Neo Alves Martins,,Zona 01 Centro,Maringá,PR,
55,1,,2,4,1,"0,00","172,00","510.000,00",0,,,0,0,0,False,Casa,,,[],0,-23.3861877,-51.9597603,"Rua Quintiliano Diniz de Souza, 142 - Jardim Paris III, Maringá - PR",Rua Quintiliano Diniz de Souza,142,Jardim Paris III,Maringá,PR,
56,1,,2,2,1,"76,00","113,00","510.000,00",0,,1,0,0,0,False,Apartamento,,,[],0,-23.4369872,-51.9114442,"Avenida Londrina, 934, torre veneza - Zona 08, Maringá - PR",Avenida Londrina,934,Zona 08,Maringá,PR,torre veneza
57,1,,1,2,1,"58,00","58,00","513.000,00",0,,,0,0,0,False,Apartamento,,,[],0,-23.4147646,-51.9355356,"Rua Marechal Deodoro, 1322 - Zona 07, Maringá - PR",Rua Marechal Deodoro,1322,Zona 07,Maringá,PR,
58,0,,3,1,1,"65,00","0,00","520.000,00",0,,,0,0,0,False,Apartamento,,,[],0,-23.4472727991939070000000000,-51.9199579217253560000000000,"Rua Ernesto Mariucci,  - Jardim Aclimação, Maringá - PR",Rua Ernesto Mariucci,,Jardim Aclimação,Maringá,PR,
59,1,,2,2,3,"0,00","152,00","520.000,00",0,,,0,0,0,False,Casa,,,[],0,-23.4539481850322350000000000,-51.9045651752338600000000000,"Rua Pioneiro Alziro Pozzi,  - Jardim São Silvestre, Maringá - PR",Rua Pioneiro Alziro Pozzi,,Jardim São Silvestre,Maringá,PR,
60,1,,2,2,2,"0,00","125,00","520.000,00",0,,,0,0,0,False,Casa,,,[],0,-23.4307919636935330000000000,-51.9699760175628000000000000,"Rua Presidente Humberto de Alencar Castelo Branco,  - Zona 05, Maringá - PR",Rua Presidente Humberto de Alencar Castelo Branco,,Zona 05,Maringá,PR,
61,1,,2,2,2,"0,00","122,00","520.000,00",0,,,0,0,0,False,Casa,,,"[{'name': 'Financiável', 'order': 6}]",0,,,"Rua Pioneira Alba Sanna Biagi,  - Jardim Dias I, Maringá - PR",Rua Pioneira Alba Sanna Biagi,,Jardim Dias I,Maringá,PR,
62,1,,2,2,1,"65,00","108,00","520.000,00",0,,,0,0,0,False,Apartamento,,,[],0,-23.45126100,-51.92191300,"Rua 28.225, 442 - Jardim Aclimação, Maringá - PR",Rua 28.225,442,Jardim Aclimação,Maringá,PR,
63,1,,2,2,1,"69,40","135,90","520.000,00",0,305,3,0,0,0,False,Apartamento,,,[],0,-23.434308110253205,-51.926077789596555,"Rua Jaracatiá, 248 - Vila Bosque, Maringá - PR",Rua Jaracatiá,248,Vila Bosque,Maringá,PR,
64,1,,2,2,1,"0,00","133,00","530.000,00",0,,,0,0,0,False,Sobrado,,,[],0,-23.4431669,-51.9294560,"Rua Adolfo Alves Ferreira, 323 - Vila Marumby, Maringá - PR",Rua Adolfo Alves Ferreira,323,Vila Marumby,Maringá,PR,
65,1,,1,2,1,"59,00","0,00","539.900,00",0,,,0,0,0,False,Apartamento,,,[],0,-23.4342493721911800000000000,-51.9115212618612460000000000,"Rua São Cristóvão,  - Zona 08, Maringá - PR",Rua São Cristóvão,,Zona 08,Maringá,PR,
66,1,,2,3,2,"0,00","144,28","549.000,00",0,,,0,0,1,False,Casa,,,"[{'name': 'Financiável', 'order': 6}]",0,-23.4209995,-51.9330558,"Rua Osaka, 228, casa - Jardim Imperial II, Maringá - PR",Rua Osaka,228,Jardim Imperial II,Maringá,PR,casa
67,1,,2,2,2,"0,00","100,00","549.000,00",0,,,0,0,0,False,Casa,,,[],0,-23.4118660,-51.9114630,"Rua Manágua, 302 - Vila Morangueira, Maringá - PR",Rua Manágua,302,Vila Morangueira,Maringá,PR,
68,1,,1,2,1,"88,29","140,32","550.000,00",0,502,5,0,0,0,False,Apartamento,,,"[{'name': 'Financiável', 'order': 6}, {'name': 'Aceita permuta', 'order': 7}]",1,-23.4225607,-51.94109049999999,"Rua Neo Alves Martins, 2814 - Zona 01 Centro, Maringá - PR",Rua Neo Alves Martins,2814,Zona 01 Centro,Maringá,PR,
69,1,,2,2,2,"0,00","99,00","550.000,00",0,,,0,0,0,False,Casa,,,[],0,-23.4078011452633630000000000,-51.8987175022203100000000000,"Rua Sequóia,  - Jardim Pinheiros, Maringá - PR",Rua Sequóia,,Jardim Pinheiros,Maringá,PR,
70,1,,2,2,2,"0,00","137,00","555.000,00",0,,,0,0,0,False,Casa,,,"[{'name': 'Aceita permuta', 'order': 7}]",0,-23.3701896667480470000000000,-51.9447174072265600000000000,"Rua Professora Maria de Lourdes Antunes Planas,  - Jardim Oriental, Maringá - PR",Rua Professora Maria de Lourdes Antunes Planas,,Jardim Oriental,Maringá,PR,
71,1,,1,2,1,"60,00","104,00","558.000,00",0,,,0,0,0,False,Apartamento,,,[],0,-23.4148006439209000000000000,-51.9303665161132800000000000,"Rua Marechal Floriano Peixoto,  - Zona 07, Maringá - PR",Rua Marechal Floriano Peixoto,,Zona 07,Maringá,PR,
72,1,,2,2,2,"0,00","108,00","560.000,00",0,,,0,0,0,False,Casa,,,[],0,-23.3673253528866950000000000,-51.9467181040722800000000000,"Rua Pioneiro Waldemar Buosi,  - Jardim Oriental, Maringá - PR",Rua Pioneiro Waldemar Buosi,,Jardim Oriental,Maringá,PR,
73,1,,2,2,2,"0,00","122,00","565.000,00",0,,,0,0,0,False,Casa,,,"[{'name': 'Financiável', 'order': 6}]",0,-23.4209995,-51.9330558,"Rua Pioneiro Noriyaso Ishikawa, 1801 - Jardim Iguaçu, Maringá - PR",Rua Pioneiro Noriyaso Ishikawa,1801,Jardim Iguaçu,Maringá,PR,
74,1,,2,2,1,"80,00","149,00","584.399,00",0,,,0,0,0,False,Apartamento,,,[],0,-23.4494848,-51.9254407,"Rua Moscados, 150 - Vila Marumby, Maringá - PR",Rua Moscados,150,Vila Marumby,Maringá,PR,
75,0,,0,0,0,"31,58","58,83","588.780,12",0,1706,17,0,0,0,False,Apartamento,,,[],0,-23.442052563868415,-51.93902963704843,"Avenida Comendador Amorim Pedrosa Moleirinho, , cidade aruna - Vila Emília, Maringá - PR",Avenida Comendador Amorim Pedrosa Moleirinho,,Vila Emília,Maringá,PR,cidade aruna
76,1,,2,2,2,"0,00","105,00","590.000,00",0,,,0,0,0,False,Casa,,,[],0,-23.3825187683105470000000000,-51.9572563171386700000000000,"Rua Pioneiro Aníbal Borin,  - Jardim Paris, Maringá - PR",Rua Pioneiro Aníbal Borin,,Jardim Paris,Maringá,PR,
77,1,,2,1,2,"0,00","249,15","590.000,00",0,,,0,0,0,False,Casa,,,[],0,-23.41174539999998,-51.9227272,"Rua Américo Brasiliense, 791 - Vila Morangueira, Maringá - PR",Rua Américo Brasiliense,791,Vila Morangueira,Maringá,PR,
78,1,,2,0,2,"0,00","99,00","590.000,00",0,,,0,0,0,False,Casa,,,[],0,,,",  - Conjunto Residencial Itamaraty, Maringá - PR",,,Conjunto Residencial Itamaraty,Maringá,PR,
79,1,,1,2,1,"64,76","104,00","590.000,00",0,405,4,0,0,1,False,Apartamento,,,[],0,-23.4474016,-51.9118153,"Avenida Senador Petrônio Portela, 1021, 405/torre 01 - Jardim Aclimação, Maringá - PR",Avenida Senador Petrônio Portela,1021,Jardim Aclimação,Maringá,PR,405/torre 01
80,1,,2,3,2,"0,00","161,00","599.000,00",0,,,0,0,0,False,Casa,,,[],0,-23.4037370,-51.9612119,"Rua Vereador Arlindo Planas, 1886 - Jardim Seminário, Maringá - PR",Rua Vereador Arlindo Planas,1886,Jardim Seminário,Maringá,PR,
81,1,,2,3,2,"0,00","114,00","599.000,00",0,,,0,0,0,False,Casa,,,[],0,-23.3763941,-51.9543484,"Rua Marçal Candido Siqueira, sn - Jardim Monte Rei, Maringá - PR",Rua Marçal Candido Siqueira,sn,Jardim Monte Rei,Maringá,PR,
82,0,,1,1,1,"44,00","0,00","617.530,00",0,114,,0,0,0,False,Apartamento,,,[],0,-23.4426412,-51.9218456,"Avenida Senador Petrônio Portela, 1 - Jardim Aclimação, Maringá - PR",Avenida Senador Petrônio Portela,1,Jardim Aclimação,Maringá,PR,
83,0,,2,2,5,"0,00","145,00","620.000,00",0,,,0,0,0,False,Casa,,,[],0,-23.4549350738525400000000000,-51.9573211669921900000000000,"Rua Luíza Zequim,  - Jardim Santa Rosa, Maringá - PR",Rua Luíza Zequim,,Jardim Santa Rosa,Maringá,PR,
84,1,,2,2,2,"75,00","112,00","620.000,00",0,1001,10º,0,0,0,False,Apartamento,,,"[{'name': 'Aceita permuta', 'order': 7}]",0,-23.4369872,-51.9114442,"Avenida Londrina, 934, torre veneza - Zona 08, Maringá - PR",Avenida Londrina,934,Zona 08,Maringá,PR,torre veneza
85,1,,1,2,2,"73,00","195,00","625.000,00",0,,12,0,0,0,False,Apartamento,,,[],0,-23.4180961,-51.9277557,"Avenida Bento Munhoz da Rocha Netto, 534, 12° andar - Zona 07, Maringá - PR",Avenida Bento Munhoz da Rocha Netto,534,Zona 07,Maringá,PR,12° andar
86,1,,2,2,1,"0,00","126,00","630.000,00",0,,,0,0,0,False,Casa,,,[],0,-23.3895984,-51.9710392,"Rua Pioneiro Olindo Alcini, 2028, residencia _a - Jardim Três Lagoas, Maringá - PR",Rua Pioneiro Olindo Alcini,2028,Jardim Três Lagoas,Maringá,PR,residencia _a
87,1,,1,1,1,"51,00","0,00","631.501,44",0,,,0,0,0,False,Apartamento,,,[],0,,,",  - Zona 07, Maringá - PR",,,Zona 07,Maringá,PR,
88,1,,2,3,3,"122,00","156,00","636.000,00",0,,,0,0,0,False,Apartamento,,,[],0,-23.4320079997161000000000000,-51.9299466330260000000000000,"Avenida São Paulo,  - Zona 02, Maringá - PR",Avenida São Paulo,,Zona 02,Maringá,PR,
89,1,,2,3,2,"0,00","137,00","636.000,00",0,,,0,0,0,False,Casa,,,[],0,-23.3847778465512980000000000,-51.9181314772040700000000000,"Rua Sebastião de Paula E Silva,  - Parque Avenida, Maringá - PR",Rua Sebastião de Paula E Silva,,Parque Avenida,Maringá,PR,
90,1,,1,2,0,"74,00","74,00","645.000,00",0,,,0,0,0,False,Apartamento,,,[],0,-23.4170166,-51.9475276,"Rua Benjamin Constant, 418 - Zona 07, Maringá - PR",Rua Benjamin Constant,418,Zona 07,Maringá,PR,
91,1,,2,2,2,"129,00","214,00","650.000,00",0,,,0,0,0,False,Apartamento,,,[],0,-23.4146765,-51.9452986,"Rua Campos Sales, 596, ap 702 - Zona 07, Maringá - PR",Rua Campos Sales,596,Zona 07,Maringá,PR,ap 702
92,1,,2,2,4,"0,00","257,00","650.000,00",0,,,0,0,0,False,Casa,,,[],0,-23.4512376674357700000000000,-51.9594640617414600000000000,"Rua das Tipuanas,  - Conjunto Habitacional Inocente Vila Nova Júnior, Maringá - PR",Rua das Tipuanas,,Conjunto Habitacional Inocente Vila Nova Júnior,Maringá,PR,
93,1,,2,2,2,"0,00","136,00","650.000,00",0,,,0,0,0,False,Casa,,,[],0,-23.4138641,-51.9533247,"Rua Alba Guimarães, 472, esquina - Zona 07, Maringá - PR",Rua Alba Guimarães,472,Zona 07,Maringá,PR,esquina
94,1,,2,2,2,"0,00","140,00","650.000,00",0,,,0,0,0,False,Casa,,,[],0,-23.4591655731201170000000000,-51.9681854248046900000000000,"Rua João Florentino,  - Jardim Espanha, Maringá - PR",Rua João Florentino,,Jardim Espanha,Maringá,PR,
95,1,,1,2,2,"70,00","0,00","650.000,00",0,,,0,0,0,False,Apartamento,,,[],0,-23.4385739,-51.9382389,", 445 - Vila Cleópatra, Maringá - PR",,445,Vila Cleópatra,Maringá,PR,
96,1,,2,1,3,"0,00","136,70","660.000,00",0,,,0,0,0,False,Casa,,,"[{'name': 'Financiável', 'order': 6}, {'name': 'Aceita permuta', 'order': 7}]",0,-23.4209995,-51.9330558,", 323 - Bom Jardim, Maringá - PR",,323,Bom Jardim,Maringá,PR,
97,1,,2,2,2,"0,00","110,00","660.000,00",0,,,0,0,0,False,Casa,,,[],0,-23.4469394683837900000000000,-51.9449615478515600000000000,"Rua Pioneiro Francisco Alcalde,  - Jardim Higienópolis, Maringá - PR",Rua Pioneiro Francisco Alcalde,,Jardim Higienópolis,Maringá,PR,
98,0,,3,2,2,"0,00","135,00","670.000,00",0,,,0,0,0,False,Casa,,,[],0,-23.4098228,-51.9188443,"Rua Mário Monteschio, 601 - Vila Morangueira, Maringá - PR",Rua Mário Monteschio,601,Vila Morangueira,Maringá,PR,
99,1,,2,4,2,"0,00","143,53","670.000,00",0,,,0,0,0,False,Sobrado,,,"[{'name': 'Financiável', 'order': 6}]",0,-23.444873599999973,-51.9263378,"Rua Assaí, 767 - Chácara Paulista, Maringá - PR",Rua Assaí,767,Chácara Paulista,Maringá,PR,
100,1,,2,3,0,"0,00","130,00","670.000,00",0,,,0,0,0,False,Casa,,,[],0,-23.3889934,-51.9512028,"Rua Jade,  - Jardim Santa Helena, Maringá - PR",Rua Jade,,Jardim Santa Helena,Maringá,PR,
101,1,,2,1,1,"74,00","0,00","680.000,00",0,,,0,0,0,False,Apartamento,,,[],0,,,"Avenida Itororó, 1388 - Zona 02, Maringá - PR",Avenida Itororó,1388,Zona 02,Maringá,PR,
102,1,,2,2,2,"0,00","116,00","680.000,00",0,,,0,0,0,False,Casa,,,[],0,,,",  - Jardim Alvorada, Maringá - PR",,,Jardim Alvorada,Maringá,PR,
103,1,,2,3,4,"0,00","200,00","685.000,00",0,,,0,0,0,False,Casa,,,[],0,-23.3933984,-51.9320137,"Rua Sol Nascente, 309 - Jardim Imperial, Maringá - PR",Rua Sol Nascente,309,Jardim Imperial,Maringá,PR,
104,1,,2,2,2,"90,36","143,96","690.000,00",0,1301,13,0,0,0,False,Apartamento,,,"[{'name': 'Financiável', 'order': 6}]",0,-23.4368362,-51.9257286,"Avenida São Paulo, 2925 - Vila Bosque, Maringá - PR",Avenida São Paulo,2925,Vila Bosque,Maringá,PR,
105,1,,2,2,2,"0,00","127,00","695.000,00",0,,,0,0,0,False,Casa,,,[],0,,,",  - Parque das Grevíleas, Maringá - PR",,,Parque das Grevíleas,Maringá,PR,
106,1,,2,2,2,"0,00","120,00","700.000,00",0,,,0,0,0,False,Casa,,,[],0,-23.3722934722900400000000000,-51.9590187072753900000000000,"Rua Pioneiro Jones Sales Pontes,  - Jardim Munique, Maringá - PR",Rua Pioneiro Jones Sales Pontes,,Jardim Munique,Maringá,PR,
107,1,,2,2,1,"79,80","150,36","701.807,00",0,,1,0,0,1,False,Apartamento,,,"[{'name': 'Financiável', 'order': 6}]",0,-23.449278707728,-51.925498408214,"Rua Moscados, 150 - Vila Marumby, Maringá - PR",Rua Moscados,150,Vila Marumby,Maringá,PR,
108,1,,1,2,1,"74,00","128,00","710.000,00",0,,,0,0,0,False,Apartamento,,,[],0,-23.4176560637665220000000000,-51.9343258618617300000000000,"Avenida Advogado Horácio Raccanello Filho,  - Zona 07, Maringá - PR",Avenida Advogado Horácio Raccanello Filho,,Zona 07,Maringá,PR,
109,1,,2,3,2,"0,00","140,00","729.000,00",0,,,0,0,0,False,Casa,,,[],0,-23.4131413722864150000000000,-51.9406107711938400000000000,"Rua Maria Inêz Fernandes Saporetti,  - Bom Jardim, Maringá - PR",Rua Maria Inêz Fernandes Saporetti,,Bom Jardim,Maringá,PR,
110,2,,1,3,2,"0,00","126,00","740.000,00",0,,,0,0,0,False,Sobrado,,,"[{'name': 'Aceita permuta', 'order': 7}]",0,-23.3786907196044920000000000,-51.9179878234863300000000000,"Rua Sindicalista Antônio Luiz de Jesus,  - Jardim Dias II, Maringá - PR",Rua Sindicalista Antônio Luiz de Jesus,,Jardim Dias II,Maringá,PR,
111,1,,2,2,2,"0,00","105,00","750.000,00",0,,,0,0,0,False,Casa,,,[],0,-23.4527320861816400000000000,-51.9161758422851560000000000,"Rua Pioneiro Mário Buralli,  - Parque Lagoa Dourada, Maringá - PR",Rua Pioneiro Mário Buralli,,Parque Lagoa Dourada,Maringá,PR,
112,1,,2,2,2,"0,00","122,00","750.000,00",0,,,0,0,0,False,Casa,,,[],0,-23.3880359789192730000000000,-51.9226504040717800000000000,"Rua Poeta Carlos Drumond de Andrade,  - Parque Avenida, Maringá - PR",Rua Poeta Carlos Drumond de Andrade,,Parque Avenida,Maringá,PR,
113,1,,2,2,1,"79,80","150,36","762.830,06",0,,5,0,0,1,False,Apartamento,,,"[{'name': 'Financiável', 'order': 6}]",0,-23.449278707728,-51.925498408214,"Rua Moscados, 150 - Vila Marumby, Maringá - PR",Rua Moscados,150,Vila Marumby,Maringá,PR,
114,1,,2,2,2,"140,21","210,93","765.000,00",0,902,9,0,0,0,False,Apartamento,,,"[{'name': 'Financiável', 'order': 6}]",0,-23.4194131,-51.9394994,"Rua Arthur Thomas, 202 - Zona 01 Centro, Maringá - PR",Rua Arthur Thomas,202,Zona 01 Centro,Maringá,PR,
115,1,,2,2,1,"79,92","165,66","781.115,62",0,,14,0,0,1,False,Apartamento,,,"[{'name': 'Financiável', 'order': 6}]",0,-23.449278707728,-51.925498408214,"Rua Moscados, 150 - Vila Marumby, Maringá - PR",Rua Moscados,150,Vila Marumby,Maringá,PR,
116,1,,2,3,2,"0,00","112,00","790.000,00",0,,,0,0,0,False,Casa,,,[],0,-23.3857456,-51.9570269,",  - Vila Santa Izabel, Maringá - PR",,,Vila Santa Izabel,Maringá,PR,
117,1,,2,2,2,"79,00","151,00","799.000,00",0,,,0,0,0,False,Apartamento,,,[],0,-23.4410688596075000000000000,-51.9311283600135700000000000,"Rua Distrito Federal,  - Chácara Paulista, Maringá - PR",Rua Distrito Federal,,Chácara Paulista,Maringá,PR,
118,1,,2,2,2,"98,00","184,00","830.000,00",0,,,0,0,0,False,Apartamento,,,[],0,-23.4394213,-51.9245107,"Rua Nardina Rodrigues Johansen,  - Loteamento Malbec, Maringá - PR",Rua Nardina Rodrigues Johansen,,Loteamento Malbec,Maringá,PR,
119,1,,2,3,1,"0,00","123,00","850.000,00",0,,,0,0,0,False,Casa,,,[],0,-23.4055561,-51.9521676,"Rua José Batista Neves, 63, casa jd canada 2 - Jardim Canadá 2ª Parte, Maringá - PR",Rua José Batista Neves,63,Jardim Canadá 2ª Parte,Maringá,PR,casa jd canada 2
120,1,,3,4,10,"0,00","216,00","850.000,00",0,,,0,0,0,False,Sobrado,,,[],0,-23.3992941,-51.9219811,"Rua Pará, 127 - Jardim Alvorada, Maringá - PR",Rua Pará,127,Jardim Alvorada,Maringá,PR,
121,1,,2,1,2,"78,53","160,04","850.000,00",0,,,0,0,0,False,Apartamento,,,[],0,-23.4230805,-51.9312552,"Rua Neo Alves Martins, 1058 - Zona 03, Maringá - PR",Rua Neo Alves Martins,1058,Zona 03,Maringá,PR,
122,1,,1,2,1,"73,00","0,00","850.000,00",0,,,0,0,0,False,Apartamento,,,[],0,-23.4219,-51.9462824,"Rua Santos Dumont, 3439, 15º - Zona 01 Centro, Maringá - PR",Rua Santos Dumont,3439,Zona 01 Centro,Maringá,PR,15º
123,1,,2,3,2,"0,00","137,00","850.000,00",0,,,0,0,0,False,Casa,,,[],0,-23.3756304789277300000000000,-51.9209650040722600000000000,"Rodovia Pr-317,  - Parque Industrial 200, Maringá - PR",Rodovia Pr-317,,Parque Industrial 200,Maringá,PR,
124,1,,2,1,2,"72,56","157,70","850.000,00",0,1701,17,0,0,0,False,Apartamento,,,[],0,-23.435146963731,-51.92632730741,"Rua Guaritá, 288 - Vila Bosque, Maringá - PR",Rua Guaritá,288,Vila Bosque,Maringá,PR,
125,3,,0,4,2,"0,00","92,00","850.000,00",0,,,0,0,0,False,Casa,,,[],0,,,",  - Jardim Munique, Maringá - PR",,,Jardim Munique,Maringá,PR,
126,1,,2,2,0,"0,00","136,00","870.000,00",0,,,0,0,0,False,Casa,,,[],0,-23.4113464355468750000000000,-51.8862800598144500000000000,"Rua Maria Inêz Fernandes Saporetti,  - Bom Jardim, Maringá - PR",Rua Maria Inêz Fernandes Saporetti,,Bom Jardim,Maringá,PR,
127,2,,2,3,2,"232,00","232,00","880.000,00",0,,,0,0,0,False,Apartamento,,,[],0,,,"Rua Neo Alves Martins, 2074, prox parque do ingá - Zona 01 Centro, Maringá - PR",Rua Neo Alves Martins,2074,Zona 01 Centro,Maringá,PR,prox parque do ingá
128,1,,3,0,0,"0,00","164,00","890.000,00",0,,,0,0,0,False,Casa,,,[],0,-23.3928508758544920000000000,-51.8866577148437500000000000,"Rua Pioneira Leonarda Garcia Coelho,  - Jardim Colina Verde II, Maringá - PR",Rua Pioneira Leonarda Garcia Coelho,,Jardim Colina Verde II,Maringá,PR,
129,3,,0,3,0,"0,00","149,00","890.000,00",0,,,0,0,0,False,Casa,,,[],0,-23.3671672,-51.9404054,", 343 - Jardim Oriental, Maringá - PR",,343,Jardim Oriental,Maringá,PR,
130,1,,3,3,4,"0,00","222,00","920.000,00",0,,,0,0,0,False,Sobrado,,,[],0,-23.4431974,-51.9436968,"Rua Divino Bortolotto, 510 - Jardim Cidade Monções, Maringá - PR",Rua Divino Bortolotto,510,Jardim Cidade Monções,Maringá,PR,
131,1,,2,3,4,"0,00","177,00","950.000,00",0,,,0,0,0,False,Casa,,,[],0,-23.3953295,-51.9360487,"Rua Netuno, 107 - Jardim Imperial II, Maringá - PR",Rua Netuno,107,Jardim Imperial II,Maringá,PR,
132,1,,2,3,2,"103,00","181,00","970.000,00",0,,,0,0,0,False,Apartamento,,,[],0,-23.4140337,-51.9307917,"Rua Francisco Glicério, 878, ap 802 - Zona 07, Maringá - PR",Rua Francisco Glicério,878,Zona 07,Maringá,PR,ap 802
133,1,,2,4,3,"0,00","182,00","980.000,00",0,,,0,0,0,False,Sobrado,,,[],0,-23.4097918,-51.9618339,"Rua Pioneiro Marcelino Leonardo, 618, a - Jardim Monte Carlo, Maringá - PR",Rua Pioneiro Marcelino Leonardo,618,Jardim Monte Carlo,Maringá,PR,a
134,1,,2,2,3,"0,00","176,00","1.050.000,00",0,,,0,0,0,False,Casa,,,[],0,-23.3913136,-51.9489846,"Rua Citrino, 129 - Jardim Brasil, Maringá - PR",Rua Citrino,129,Jardim Brasil,Maringá,PR,
135,1,,2,2,2,"103,00","184,61","1.100.000,00",0,502,,0,0,0,False,Apartamento,,,[],0,-23.4173424,-51.9422624,"Avenida João Paulino Vieira Filho, 943 - Zona 01 Centro, Maringá - PR",Avenida João Paulino Vieira Filho,943,Zona 01 Centro,Maringá,PR,
136,2,,1,4,2,"0,00","186,00","1.100.000,00",0,,,0,0,0,False,Casa,,,[],0,-23.4475794,-51.9459831,"Rua Rosacruz, 622 - Jardim Higienópolis, Maringá - PR",Rua Rosacruz,622,Jardim Higienópolis,Maringá,PR,
137,1,,2,3,2,"111,00","189,00","1.100.000,00",0,,,0,0,0,False,Apartamento,,,[],0,-23.4188230,-51.9405160,"Avenida Tamandaré, 748, ap 501 - Zona 01 Centro, Maringá - PR",Avenida Tamandaré,748,Zona 01 Centro,Maringá,PR,ap 501
138,1,,3,2,2,"100,91","180,35","1.100.000,00",0,1601,16,0,0,1,False,Apartamento,,,"[{'name': 'Financiável', 'order': 6}]",0,-23.4144593,-51.9297018,"Rua Francisco Glicério, 794, frente - Zona 07, Maringá - PR",Rua Francisco Glicério,794,Zona 07,Maringá,PR,frente
139,1,,2,3,2,"0,00","182,00","1.189.000,00",0,,,0,0,0,False,Casa e Sobrado em Condomínios,,,[],0,-23.4416407,-51.9556345,"Avenida Carlos Correa Borges, 1013 - Jardim Guaporé, Maringá - PR",Avenida Carlos Correa Borges,1013,Jardim Guaporé,Maringá,PR,
140,1,,2,2,2,"0,00","218,99","1.190.000,00",0,,,0,0,0,False,Sobrado,,,[],0,-23.4492577,-51.9467358,"Rua Pioneiro Ângelo Bertoni, 907, 907 - Recanto dos Magnatas, Maringá - PR",Rua Pioneiro Ângelo Bertoni,907,Recanto dos Magnatas,Maringá,PR,907
141,1,,2,1,0,"211,30","0,00","1.200.000,00",0,,,0,0,0,False,Apartamento,,,[],0,-23.4264327,-51.9244181,"Avenida Paissandu, 854, 1 - Zona 03, Maringá - PR",Avenida Paissandu,854,Zona 03,Maringá,PR,1
142,1,,2,2,2,"107,00","0,00","1.200.000,00",0,,,0,0,0,False,Apartamento,,,[],0,-23.4280870925661340000000000,-51.9231325753554000000000000,"Rua Barroso,  - Zona 03, Maringá - PR",Rua Barroso,,Zona 03,Maringá,PR,
143,0,,0,0,0,"0,00","280,81","1.200.000,00",0,,,0,0,0,False,Sobrado,,,[],0,-23.4545884,-51.957539,"Rua Professora Maria Cleusa Milléo Romano, 431 - Jardim Santa Rosa, Maringá - PR",Rua Professora Maria Cleusa Milléo Romano,431,Jardim Santa Rosa,Maringá,PR,
144,3,,0,4,2,"115,00","0,00","1.250.000,00",0,,,0,0,0,False,Apartamento,,,[],0,-23.4434814453125000000000000,-51.9323348999023440000000000,"Rua Tabaetê,  - Jardim Tabaete, Maringá - PR",Rua Tabaetê,,Jardim Tabaete,Maringá,PR,
145,3,,0,3,2,"115,00","231,00","1.250.000,00",0,,,0,0,0,False,Apartamento,,,[],0,-23.4146110760355840000000000,-51.9359297311790940000000000,"Rua Marechal Deodoro,  - Zona 07, Maringá - PR",Rua Marechal Deodoro,,Zona 07,Maringá,PR,
146,1,,2,1,2,"0,00","160,00","1.250.000,00",0,,,1,0,0,False,Casa,,,"[{'name': 'Financiável', 'order': 6}, {'name': 'Aceita permuta', 'order': 7}]",0,-23.44421930000001,-51.957957599999986,"Rua Pioneiro Domingos Salgueiro, 1652 - Jardim Guaporé, Maringá - PR",Rua Pioneiro Domingos Salgueiro,1652,Jardim Guaporé,Maringá,PR,
147,1,,2,3,2,"117,00","239,00","1.250.000,00",0,,,0,0,0,False,Apartamento,,,[],0,-23.4147636,-51.9360017,"Rua Marechal Deodoro, 1372, ap 1301 - Zona 07, Maringá - PR",Rua Marechal Deodoro,1372,Zona 07,Maringá,PR,ap 1301
148,2,,0,4,2,"136,77","0,00","1.250.000,00",0,,,0,0,0,False,Apartamento,,,[],0,-23.4179641,-51.9333293,"Avenida Advogado Horácio Raccanello Filho, 5350, 1301 - Zona 07, Maringá - PR",Avenida Advogado Horácio Raccanello Filho,5350,Zona 07,Maringá,PR,1301
149,3,,0,4,2,"0,00","230,51","1.300.000,00",0,,,0,0,0,False,Sobrado,,,"[{'name': 'Aceita permuta', 'order': 7}]",0,-23.4473331,-51.9483785,"Rua Pioneiro Francisco Alcalde, 613, sobrado b - Jardim Higienópolis, Maringá - PR",Rua Pioneiro Francisco Alcalde,613,Jardim Higienópolis,Maringá,PR,sobrado b
150,3,,0,4,2,"0,00","170,00","1.300.000,00",0,,,0,0,0,False,Casa,,,[],0,-23.4610881805419920000000000,-51.9653396606445300000000000,"Rua Octávio Marchi,  - Jardim Espanha, Maringá - PR",Rua Octávio Marchi,,Jardim Espanha,Maringá,PR,
151,1,,2,2,2,"93,00","0,00","1.350.000,00",0,,25,0,0,0,False,Cobertura,,,[],0,-23.4366168,-51.925919,"Avenida São Paulo, 2889 - Vila Bosque, Maringá - PR",Avenida São Paulo,2889,Vila Bosque,Maringá,PR,
152,1,,3,2,2,"0,00","242,00","1.370.000,00",0,,,0,0,0,False,Sobrado,,,"[{'name': 'Financiável', 'order': 6}]",0,-23.3970813751220700000000000,-51.9295806884765600000000000,",  - Parque Residencial Cidade Nova, Maringá - PR",,,Parque Residencial Cidade Nova,Maringá,PR,
153,2,,2,4,4,"0,00","300,00","1.389.000,00",0,,,0,0,0,False,Casa,,,[],0,-23.3893913,-51.9512059,"Rua Pioneiro Arlindo Pedralli, 1436 - Jardim Santa Helena, Maringá - PR",Rua Pioneiro Arlindo Pedralli,1436,Jardim Santa Helena,Maringá,PR,
154,3,,0,4,2,"0,00","203,00","1.390.000,00",0,,,0,0,0,False,Casa,,,[],0,-23.3734197929967500000000000,-51.9628446465216100000000000,"Rua Pioneiro Jones Sales Pontes,  - Jardim Munique, Maringá - PR",Rua Pioneiro Jones Sales Pontes,,Jardim Munique,Maringá,PR,
155,1,,2,1,2,"0,00","181,00","1.390.000,00",0,,,0,0,0,False,Casa,,,[],0,,,",  - Vila Esperança, Maringá - PR",,,Vila Esperança,Maringá,PR,
156,1,,2,2,2,"113,00","171,00","1.390.000,00",0,,7,0,0,0,False,Apartamento,,,[],0,-23.4239841,-51.92271239999999,"Rua Santos Dumont, 1018, 402 - Zona 03, Maringá - PR",Rua Santos Dumont,1018,Zona 03,Maringá,PR,402
157,3,,0,4,3,"0,00","184,00","1.400.000,00",0,,,0,0,0,False,Sobrado,,,[],0,-23.3745743467869900000000000,-51.9560268041924760000000000,"Rua Eufrásia Carmona Bustos,  - Jardim Monte Rei, Maringá - PR",Rua Eufrásia Carmona Bustos,,Jardim Monte Rei,Maringá,PR,
158,3,,0,5,2,"0,00","209,00","1.450.000,00",0,,,0,0,0,False,Casa,,,"[{'name': 'Aceita permuta', 'order': 7}]",0,-23.3731316956382860000000000,-51.9630186041925550000000000,"Rua Pioneiro Jones Sales Pontes,  - Jardim Munique, Maringá - PR",Rua Pioneiro Jones Sales Pontes,,Jardim Munique,Maringá,PR,
159,3,,0,5,2,"165,00","0,00","1.450.000,00",0,,,0,0,0,False,Apartamento,,,[],0,-23.4224579,-51.921939,"Avenida Paraná, 6326 - Zona 07, Maringá - PR",Avenida Paraná,6326,Zona 07,Maringá,PR,
160,1,,2,3,4,"0,00","239,00","1.450.000,00",0,,,0,0,0,False,Casa,,,[],0,-23.3702211,-51.9319108,"Rua Pioneiro Mário Manganoti,  - Portal das Torres, Maringá - PR",Rua Pioneiro Mário Manganoti,,Portal das Torres,Maringá,PR,
161,3,,0,4,2,"0,00","218,86","1.450.000,00",0,,,0,0,0,False,Sobrado,,,[],0,-23.4443133,-51.94347339999999,"Rua Divino Bortolotto, 777 - Jardim Cidade Monções, Maringá - PR",Rua Divino Bortolotto,777,Jardim Cidade Monções,Maringá,PR,
162,3,,1,1,3,"0,00","283,50","1.480.000,00",0,,,0,0,0,False,Sobrado,,,[],0,-23.4209995,-51.9330558,"Rua Pioneiro Múcio Rodrigues, 438 - Jardim Brasil, Maringá - PR",Rua Pioneiro Múcio Rodrigues,438,Jardim Brasil,Maringá,PR,
163,2,,5,4,4,"0,00","441,00","1.490.000,00",0,,,0,0,0,False,Sobrado,,,[],0,-23.431146,-51.9383384,"Rua Vaz Caminha, 1296 - Zona 02, Maringá - PR",Rua Vaz Caminha,1296,Zona 02,Maringá,PR,
164,2,,1,3,2,"119,00","211,00","1.490.000,00",0,,,0,0,0,False,Apartamento,,,[],0,-23.426304721795,-51.924857982271,"Avenida Paissandu, 854, 1102 - Zona 03, Maringá - PR",Avenida Paissandu,854,Zona 03,Maringá,PR,1102
165,2,,2,4,3,"147,65","0,00","1.490.000,00",0,,,0,0,0,False,Apartamento,,,[],0,-23.4161194,-51.9371799,"Avenida Prudente de Morais, 417, 001 - Zona 07, Maringá - PR",Avenida Prudente de Morais,417,Zona 07,Maringá,PR,001
166,1,,2,2,2,"0,00","250,00","1.500.000,00",0,,,0,0,0,False,Sobrado,,,"[{'name': 'Aceita permuta', 'order': 7}]",0,-23.3940639495849600000000000,-51.9350585937500000000000000,"Rua Bonsai,  - Jardim Imperial II, Maringá - PR",Rua Bonsai,,Jardim Imperial II,Maringá,PR,
167,2,,1,4,2,"0,00","145,00","1.500.000,00",0,,,0,0,0,False,Casa,,,[],0,,,",  - Jardim Itália II, Maringá - PR",,,Jardim Itália II,Maringá,PR,
168,3,,0,4,2,"0,00","225,00","1.550.000,00",0,,,0,0,0,False,Casa,,,[],0,,,",  - Jardim Cidade Monções, Maringá - PR",,,Jardim Cidade Monções,Maringá,PR,
169,1,,2,2,2,"112,85","0,00","1.550.000,00",0,,,0,0,0,False,Apartamento,,,[],0,-23.4347865,-51.9130105,"Avenida Guedner, 521, 402 - Zona 08, Maringá - PR",Avenida Guedner,521,Zona 08,Maringá,PR,402
170,3,,0,1,4,"0,00","225,00","1.550.000,00",0,,,0,0,0,False,Sobrado,,,[],0,-23.4443352,-51.9434149,"Rua Divino Bortolotto, 657-B, 657-b - Jardim Cidade Monções, Maringá - PR",Rua Divino Bortolotto,657-B,Jardim Cidade Monções,Maringá,PR,657-b
171,3,,0,3,0,"0,00","220,00","1.565.500,00",0,,,0,0,0,False,Casa,,,"[{'name': 'Aceita permuta', 'order': 7}]",0,-23.4471778869628900000000000,-51.9317817687988300000000000,"Rua Adolfo Alves Ferreira,  - Vila Marumby, Maringá - PR",Rua Adolfo Alves Ferreira,,Vila Marumby,Maringá,PR,
172,3,,0,3,3,"134,42","276,31","1.590.000,00",0,1202,,0,0,0,False,Apartamento,,,"[{'name': 'Financiável', 'order': 6}]",0,-23.437781,-51.9335406,"Rua Monsenhor Kimura, 27 - Vila Cleópatra, Maringá - PR",Rua Monsenhor Kimura,27,Vila Cleópatra,Maringá,PR,
173,1,,2,0,4,"0,00","304,00","1.590.000,00",0,,,0,0,0,False,Casa,,,"[{'name': 'Aceita permuta', 'order': 7}]",0,-23.3789882659912100000000000,-51.9548530578613300000000000,"Rua Ametista,  - Jardim Santa Helena, Maringá - PR",Rua Ametista,,Jardim Santa Helena,Maringá,PR,
174,2,,2,4,3,"0,00","391,82","1.600.000,00",0,,,0,0,0,False,Sobrado,,,[],0,-23.4209995,-51.9330558,", 775 - Jardim Guaporé, Maringá - PR",,775,Jardim Guaporé,Maringá,PR,
175,3,,0,3,3,"147,10","298,37","1.690.000,00",0,1801,,1,0,0,False,Duplex,,,[],0,-23.434539035069154,-51.92595753498764,"Rua Jaracatiá, 302 - Vila Bosque, Maringá - PR",Rua Jaracatiá,302,Vila Bosque,Maringá,PR,
176,3,,1,5,4,"0,00","302,00","1.699.000,00",0,,,0,0,0,False,Sobrado,,,[],0,-23.4079461,-51.9570060,"Rua Ubirajara, 68 - Jardim Lucianópolis, Maringá - PR",Rua Ubirajara,68,Jardim Lucianópolis,Maringá,PR,
177,2,,1,4,4,"0,00","228,00","1.730.000,00",0,,,0,0,0,False,Casa,,,[],0,-23.4209995,-51.9330558,"Rua Eurico Batista de Oliveira Junior, 252 - Parque da Gávea, Maringá - PR",Rua Eurico Batista de Oliveira Junior,252,Parque da Gávea,Maringá,PR,
178,3,,0,4,3,"136,00","248,17","1.780.000,00",0,1503,,0,0,0,False,Duplex,,,[],0,-23.4200163,-51.9287525,"Avenida Mauá, 2720 - Zona 03, Maringá - PR",Avenida Mauá,2720,Zona 03,Maringá,PR,
179,3,,0,4,2,"0,00","197,00","1.800.000,00",0,,,0,0,0,False,Casa e Sobrado em Condomínios,,,[],0,-23.4719645270347250000000000,-51.9110505175619250000000000,"Rua Pioneiro Carlos Bulla,  - Jardim Paraíso, Maringá - PR",Rua Pioneiro Carlos Bulla,,Jardim Paraíso,Maringá,PR,
180,1,,2,4,4,"0,00","250,00","1.800.000,00",0,,,0,0,0,False,Sobrado,,,[],0,,,"Avenida Guedner, 948, casa 24 - Zona 08, Maringá - PR",Avenida Guedner,948,Zona 08,Maringá,PR,casa 24
181,3,,0,2,3,"194,26","389,69","1.970.000,00",0,,,0,0,0,False,Apartamento,,,"[{'name': 'Aceita permuta', 'order': 7}]",0,-23.4234885,-51.9449021,"Avenida Xv de Novembro, 1266 - Zona 01 Centro, Maringá - PR",Avenida Xv de Novembro,1266,Zona 01 Centro,Maringá,PR,
182,3,,0,4,2,"0,00","281,00","1.990.000,00",0,,,0,0,0,False,Casa,,,[],0,,,"Rua Vicente Rodrigues da Silva,  - Jardim Munique, Maringá - PR",Rua Vicente Rodrigues da Silva,,Jardim Munique,Maringá,PR,
183,2,,2,4,0,"179,00","348,00","2.100.000,00",0,,,0,0,0,False,Apartamento,,,"[{'name': 'Aceita permuta', 'order': 7}]",0,-23.4231216282140440000000000,-51.9270437753555800000000000,"Rua Neo Alves Martins,  - Zona 03, Maringá - PR",Rua Neo Alves Martins,,Zona 03,Maringá,PR,
184,5,,0,6,4,"0,00","360,00","2.100.000,00",0,,,0,0,0,False,Sobrado,,,"[{'name': 'Aceita permuta', 'order': 7}]",0,-23.4357772566795250000000000,-51.9548057060379700000000000,"Rua Visconde de Nacar,  - Zona 04, Maringá - PR",Rua Visconde de Nacar,,Zona 04,Maringá,PR,
185,3,,0,1,2,"0,00","205,00","2.100.000,00",0,,,0,0,0,False,Casa e Sobrado em Condomínios,,,[],0,,,",  - Parque Industrial, Maringá - PR",,,Parque Industrial,Maringá,PR,
186,1,,3,2,3,"236,00","0,00","2.200.000,00",0,,,0,0,0,False,Apartamento,,,[],0,-23.4175682067871100000000000,-51.9356575012207000000000000,"Avenida João Paulino Vieira Filho,  - Zona 01 Centro, Maringá - PR",Avenida João Paulino Vieira Filho,,Zona 01 Centro,Maringá,PR,
187,3,,0,5,3,"172,00","278,00","2.200.000,00",0,,,0,0,0,False,Duplex,,,[],0,-23.4175167083740230000000000,-51.9337158203125000000000000,"Avenida João Paulino Vieira Filho,  - Zona 01 Centro, Maringá - PR",Avenida João Paulino Vieira Filho,,Zona 01 Centro,Maringá,PR,
188,2,,2,5,2,"0,00","297,00","2.200.000,00",0,,,0,0,0,False,Sobrado,,,[],0,-23.3884010314941400000000000,-51.9229431152343750000000000,"Rua Pioneiro Abílio Gaspar,  - Parque Avenida, Maringá - PR",Rua Pioneiro Abílio Gaspar,,Parque Avenida,Maringá,PR,
189,3,,0,4,0,"144,00","276,00","2.200.000,00",0,,,0,0,0,False,Apartamento,,,[],0,,,"Rua Arthur Thomas, 92 - Zona 01 Centro, Maringá - PR",Rua Arthur Thomas,92,Zona 01 Centro,Maringá,PR,
190,3,,3,5,2,"0,00","231,00","2.300.000,00",0,,,0,0,0,False,Casa e Sobrado em Condomínios,,,[],0,-23.472089,-51.906143,"Rua Jacob Porsak, 257 - Chácaras Aeroporto, Maringá - PR",Rua Jacob Porsak,257,Chácaras Aeroporto,Maringá,PR,
191,3,,0,5,3,"163,00","0,00","2.380.000,00",0,,,1,0,0,False,Apartamento,,,"[{'name': 'Financiável', 'order': 6}]",0,-23.4267993,-51.9261738,"Rua Barroso, 780 - Zona 03, Maringá - PR",Rua Barroso,780,Zona 03,Maringá,PR,
192,3,,0,5,2,"0,00","232,00","2.390.000,00",0,,,0,0,0,False,Sobrado,,,"[{'name': 'Aceita permuta', 'order': 7}]",0,-23.4318909382699270000000000,-51.9514323770855240000000000,"Rua Joaquim Murtinho,  - Zona 04, Maringá - PR",Rua Joaquim Murtinho,,Zona 04,Maringá,PR,
193,2,,3,2,4,"0,00","432,00","2.400.000,00",0,,,0,0,0,False,Casa e Sobrado em Condomínios,,,[],0,-23.4401226043701170000000000,-51.9138603210449200000000000,"Avenida Guedner, 1170 - Zona 08, Maringá - PR",Avenida Guedner,1170,Zona 08,Maringá,PR,
194,1,,2,3,2,"0,00","327,87","2.490.000,00",0,,,0,0,0,False,Casa,,,[],0,-23.4443633,-51.9506461,"Rua Maestro Fumimasa Otani, 90, 90 - Zona 20, Maringá - PR",Rua Maestro Fumimasa Otani,90,Zona 20,Maringá,PR,90
195,3,,0,5,0,"176,00","270,00","2.590.000,00",0,,,0,0,0,False,Apartamento,,,[],0,,,"Rua Arthur Thomas, 910 - Zona 01 Centro, Maringá - PR",Rua Arthur Thomas,910,Zona 01 Centro,Maringá,PR,
196,3,,1,4,2,"0,00","476,00","2.590.000,00",0,,,0,0,0,False,Casa e Sobrado em Condomínios,,,[],0,-23.472089,-51.906143,"Rua Jacob Porsak, 257 - Chácaras Aeroporto, Maringá - PR",Rua Jacob Porsak,257,Chácaras Aeroporto,Maringá,PR,
197,3,,0,1,2,"0,00","245,25","2.650.000,00",0,,,0,0,0,False,Casa e Sobrado em Condomínios,,,[],0,-23.4401497,-51.955581,"Rua Pioneiro Waldemar Gomes da Cunha, 269, 269 - Jardim San Remo, Maringá - PR",Rua Pioneiro Waldemar Gomes da Cunha,269,Jardim San Remo,Maringá,PR,269
198,4,,0,6,6,"233,50","412,24","2.700.000,00",0,2202-2201,25,1,0,0,False,Duplex,,,[],0,-23.434365,-51.92953,"Rua Estácio de Sá, 1082, ap. 2202 e 2201 - Vila Bosque, Maringá - PR",Rua Estácio de Sá,1082,Vila Bosque,Maringá,PR,ap. 2202 e 2201
199,3,,0,4,4,"218,00","0,00","2.771.550,00",0,402,4,0,0,0,False,Apartamento,,,[],0,-23.4278938,-51.9258536,"Rua Henrique Dias, 679 - Zona 03, Maringá - PR",Rua Henrique Dias,679,Zona 03,Maringá,PR,
200,3,,0,5,0,"172,00","344,00","2.850.000,00",0,,,0,0,0,False,Apartamento,,,[],0,,,"Avenida Itororó, 1300 - Zona 02, Maringá - PR",Avenida Itororó,1300,Zona 02,Maringá,PR,
201,3,,0,4,0,"179,00","295,00","2.950.000,00",0,,,0,0,0,False,Apartamento,,,[],0,,,"Avenida Prudente de Morais, 65 - Zona 07, Maringá - PR",Avenida Prudente de Morais,65,Zona 07,Maringá,PR,
202,4,,0,5,2,"0,00","295,17","2.980.000,00",0,,,1,0,0,False,Casa e Sobrado em Condomínios,,,[],0,-23.4718342,-51.9063211,"Rua Jacob Porsak, 257 - Chácaras Aeroporto, Maringá - PR",Rua Jacob Porsak,257,Chácaras Aeroporto,Maringá,PR,
203,4,,0,4,4,"0,00","430,00","3.200.000,00",0,,,0,0,0,False,Casa e Sobrado em Condomínios,,,[],0,-23.4720897674560550000000000,-51.9061431884765600000000000,"Rua Jacob Porsak,  - Chácaras Aeroporto, Maringá - PR",Rua Jacob Porsak,,Chácaras Aeroporto,Maringá,PR,
204,3,,2,5,2,"0,00","388,00","3.200.000,00",0,,,0,0,0,False,Casa e Sobrado em Condomínios,,,[],0,-23.439124019522083,-51.9142361353028,"Avenida Guedner,  - Zona 08, Maringá - PR",Avenida Guedner,,Zona 08,Maringá,PR,
205,3,,0,1,3,"179,40","0,00","3.200.000,00",0,,,0,0,0,False,Apartamento,,,[],0,-23.416543,-51.9335344,"Avenida Prudente de Morais, 65, 1302 - Zona Armazém, Maringá - PR",Avenida Prudente de Morais,65,Zona Armazém,Maringá,PR,1302
206,3,,0,4,4,"262,00","416,00","3.300.000,00",0,,,0,0,0,False,Apartamento,,,[],0,,,"Avenida Tiradentes, 824 - Zona 01 Centro, Maringá - PR",Avenida Tiradentes,824,Zona 01 Centro,Maringá,PR,
207,3,,0,5,4,"0,00","419,73","3.390.000,00",0,,,0,0,0,False,Casa e Sobrado em Condomínios,,,[],0,-23.4410583,-51.9630673,"Rua das Azaléias, 756, 756 - Conjunto Habitacional Inocente Vila Nova Júnior, Maringá - PR",Rua das Azaléias,756,Conjunto Habitacional Inocente Vila Nova Júnior,Maringá,PR,756
208,4,,0,5,4,"0,00","317,08","3.400.000,00",0,257,,1,0,0,False,Casa e Sobrado em Condomínios,,,[],0,-23.472089,-51.906143,"Rua Jacob Porsak, 257 - Chácaras Aeroporto, Maringá - PR",Rua Jacob Porsak,257,Chácaras Aeroporto,Maringá,PR,
209,3,,1,7,4,"0,00","597,53","3.500.000,00",0,,,0,0,0,False,Casa e Sobrado em Condomínios,,,[],0,-23.4400871,-51.9138544,"Avenida Guedner, 1170, 1170 - Zona 08, Maringá - PR",Avenida Guedner,1170,Zona 08,Maringá,PR,1170
210,3,,3,4,3,"0,00","380,00","3.500.000,00",0,,,0,0,0,False,Casa,,,[],0,-23.472089,-51.906143,"Rua Jacob Porsak, 257 - Chácaras Aeroporto, Maringá - PR",Rua Jacob Porsak,257,Chácaras Aeroporto,Maringá,PR,
211,3,,0,5,0,"222,00","444,00","3.690.000,00",0,,,0,0,0,False,Apartamento,,,[],0,,,"Avenida Xv de Novembro, 995 - Zona 01 Centro, Maringá - PR",Avenida Xv de Novembro,995,Zona 01 Centro,Maringá,PR,
212,3,3.0,0,5,4,"0,00","626,00","3.700.000,00",0,,,0,0,0,False,Sobrado,,,[],0,-23.4297218,-51.9538003,"Rua José do Patrocínio, 294, casa / sobrado - Zona 04, Maringá - PR",Rua José do Patrocínio,294,Zona 04,Maringá,PR,casa / sobrado
213,4,,0,0,4,"294,05","610,69","3.860.000,00",0,,,0,0,0,False,Cobertura,,,[],0,-23.4234885,-51.9449021,"Avenida Xv de Novembro, 1266 - Zona 01 Centro, Maringá - PR",Avenida Xv de Novembro,1266,Zona 01 Centro,Maringá,PR,
214,3,,0,5,0,"222,00","444,00","3.900.000,00",0,,,0,0,0,False,Apartamento,,,[],0,,,"Avenida Xv de Novembro, 1007 - Zona 01 Centro, Maringá - PR",Avenida Xv de Novembro,1007,Zona 01 Centro,Maringá,PR,
215,6,,0,8,4,"0,00","556,00","3.900.000,00",0,,,1,0,0,False,Sobrado,,,"[{'name': 'Financiável', 'order': 6}]",0,-23.429391510439793,-51.93933657359333,"Rua Vaz Caminha, 450 - Zona 02, Maringá - PR",Rua Vaz Caminha,450,Zona 02,Maringá,PR,
216,3,,1,5,0,"0,00","540,00","3.950.000,00",0,,,0,0,0,False,Casa e Sobrado em Condomínios,,,[],0,,,"Avenida Doutor Gastão Vidigal, 2431 - Jardim Leblon, Maringá - PR",Avenida Doutor Gastão Vidigal,2431,Jardim Leblon,Maringá,PR,
217,2,,2,3,2,"0,00","420,00","4.000.000,00",0,,,0,0,0,False,Casa e Sobrado em Condomínios,,,[],0,-23.4496376,-51.9147307,"Avenida Doutor Gastão Vidigal, 2461 - Jardim Leblon, Maringá - PR",Avenida Doutor Gastão Vidigal,2461,Jardim Leblon,Maringá,PR,
218,5,,0,6,4,"0,00","426,00","6.000.000,00",0,,,1,0,0,False,Casa e Sobrado em Condomínios,,,[],0,-23.361177,-52.00738,"Estrada Romeirinha, 2413 - Jardins de Monet Residence, Maringá - PR",Estrada Romeirinha,2413,Jardins de Monet Residence,Maringá,PR,
219,0,,4,5,0,"382,00","618,00","7.200.000,00",0,,,0,0,0,False,Apartamento,,,[],0,-23.4339294433593750000000000,-51.9287948608398440000000000,"Avenida São Paulo, 2508 - Vila Bosque, Maringá - PR",Avenida São Paulo,2508,Vila Bosque,Maringá,PR,
220,4,,0,7,8,"0,00","610,00","7.900.000,00",0,,,0,0,0,False,Casa e Sobrado em Condomínios,,,[],0,-23.361177,-52.00738,"Estrada Romeirinha, 2413 - Jardins de Monet Residence, Maringá - PR",Estrada Romeirinha,2413,Jardins de Monet Residence,Maringá,PR,
221,0,,2,1,1,"54,00","95,00","174.000,00",0,,,0,0,0,False,Apartamento,,,[],0,,,"Rua Ouro Verde,  - Vila Emília, Maringá - PR",Rua Ouro Verde,,Vila Emília,Maringá,PR,
222,1,,0,1,1,"50,66","0,00","178.593,80",0,,4,1,0,0,False,Apartamento,,,"[{'name': 'Aceita permuta', 'order': 7}]",1,-23.4245507,-51.9458553,"Avenida Governador Parigot de Souza, 229, direitos - Zona 01 Centro, Maringá - PR",Avenida Governador Parigot de Souza,229,Zona 01 Centro,Maringá,PR,direitos
223,0,,3,1,1,"55,96","59,40","265.000,00",0,,,0,0,0,False,Apartamento,,,"[{'name': 'Financiável', 'order': 6}]",0,-23.443861399999985,-51.9371913,"Rua Professor Giampero Monacci, 438 - Jardim Novo Horizonte, Maringá - PR",Rua Professor Giampero Monacci,438,Jardim Novo Horizonte,Maringá,PR,
224,0,,2,1,3,"0,00","100,00","270.000,00",0,,,0,0,0,False,Casa,,,[],0,,,"Rua Rio Samambaia, 258 - Jardim Campos Elísios, Maringá - PR",Rua Rio Samambaia,258,Jardim Campos Elísios,Maringá,PR,
225,0,,2,1,1,"48,10","90,00","340.000,00",0,305,3º,0,0,0,False,Apartamento,,,"[{'name': 'Financiável', 'order': 6}]",0,-23.42376469999999,-51.924902200000005,"Rua Santos Dumont, 1203 - Zona 03, Maringá - PR",Rua Santos Dumont,1203,Zona 03,Maringá,PR,
226,0,,2,1,1,"41,98","85,22","360.000,00",0,1304,11,0,0,1,False,Apartamento,,,"[{'name': 'Financiável', 'order': 6}]",0,-23.40974,-51.9348749,"Rua 10 de Maio, 241 - Zona 07, Maringá - PR",Rua 10 de Maio,241,Zona 07,Maringá,PR,
227,0,,3,1,5,"0,00","188,67","370.000,00",0,,,0,0,0,False,Casa,,,[],0,-23.384471899999994,-51.93296879999999,"Rua Catuaba, 54 - Jardim Vitória, Maringá - PR",Rua Catuaba,54,Jardim Vitória,Maringá,PR,
228,0,,3,1,2,"0,00","112,00","370.000,00",0,,,0,0,0,False,Casa,,,[],0,-23.397802286415267,-51.96127280439745,"Rua das Mangueiras, 522 - Jardim Tropical, Maringá - PR",Rua das Mangueiras,522,Jardim Tropical,Maringá,PR,
229,0,,3,1,2,"0,00","101,85","398.000,00",0,,,0,0,0,False,Casa,,,[],0,-23.38355169999999,-51.93324899999999,"Travessa Marfim, 39 - Jardim Vitória, Maringá - PR",Travessa Marfim,39,Jardim Vitória,Maringá,PR,
230,1,,2,2,1,"0,00","122,03","410.000,00",0,,,0,0,0,False,Casa,,,[],0,-23.41217850000001,-51.9659871,"Rua Pioneiro Nestor Ponciano, 810 - Jardim Montreal, Maringá - PR",Rua Pioneiro Nestor Ponciano,810,Jardim Montreal,Maringá,PR,
231,1,,2,2,2,"0,00","99,95","450.000,00",0,,,0,0,0,False,Casa,,,"[{'name': 'Financiável', 'order': 6}]",0,-23.38115989999999,-51.9538861,"Rua Pioneiro Antônio de Paula Freitas, 330 - Jardim Império do Sol, Maringá - PR",Rua Pioneiro Antônio de Paula Freitas,330,Jardim Império do Sol,Maringá,PR,
232,2,,0,2,2,"0,00","107,13","500.000,00",0,,,0,0,0,False,Sobrado,,,[],0,-23.454516,-51.946338,"Rua Pioneiro Carlos João Basso, 1122, 1122 - Jardim Itália II, Maringá - PR",Rua Pioneiro Carlos João Basso,1122,Jardim Itália II,Maringá,PR,1122
233,1,,2,3,3,"0,00","112,00","560.000,00",0,,,0,0,0,False,Casa,,,[],0,-23.3661173,-51.9437035,"Rua Francisco Jorge Ribeiro, 123 - Jardim Oriental, Maringá - PR",Rua Francisco Jorge Ribeiro,123,Jardim Oriental,Maringá,PR,
234,1,,1,2,1,"54,34","96,91","599.000,00",0,301,,0,0,0,False,Apartamento,,,[],0,-23.4316255,-51.9156776,"Avenida Monteiro Lobato, 1646 - Zona 08, Maringá - PR",Avenida Monteiro Lobato,1646,Zona 08,Maringá,PR,
235,0,,2,2,1,"54,07","107,16","599.000,00",0,1204,12,0,0,0,False,Apartamento,,,[],0,-23.4219656,-51.9304137,"Rua Santos Dumont, 1930 - Zona 01 Centro, Maringá - PR",Rua Santos Dumont,1930,Zona 01 Centro,Maringá,PR,
236,1,,2,1,4,"0,00","128,00","670.000,00",0,,,0,0,0,False,Casa,,,[],0,-23.4110014,-51.9202260,"Rua Bogotá, 501 - Vila Morangueira, Maringá - PR",Rua Bogotá,501,Vila Morangueira,Maringá,PR,
237,1,,1,1,1,"67,52","0,00","670.000,00",0,603,,0,0,0,False,Apartamento,,,[],0,-23.4102862,-51.9306093,"Rua Santo Antônio, 84 - Zona 07, Maringá - PR",Rua Santo Antônio,84,Zona 07,Maringá,PR,
238,1,,1,2,1,"55,00","0,00","677.610,00",0,,,0,0,0,False,Apartamento,,,[],0,,,"Rua Barroso,  - Zona 03, Maringá - PR",Rua Barroso,,Zona 03,Maringá,PR,
239,1,,3,3,6,"0,00","337,45","680.000,00",0,,,0,0,0,False,Casa,,,"[{'name': 'Financiável', 'order': 6}]",0,-23.385823200000004,-51.932908100000006,"Rua das Carnaúbas, 30 - Parque das Bandeiras, Maringá - PR",Rua das Carnaúbas,30,Parque das Bandeiras,Maringá,PR,
240,1,,1,2,1,"78,00","0,00","745.000,00",0,,,0,0,0,False,Apartamento,,,[],0,-23.4432300000000000000000000,-51.9210500000000000000000000,"Rua Moscados, 894 - Vila Marumby, Maringá - PR",Rua Moscados,894,Vila Marumby,Maringá,PR,
241,1,,2,2,2,"79,00","160,00","779.000,00",0,,,0,0,0,False,Apartamento,,,[],0,-23.4241459,-51.9251195,"Rua Neo Alves Martins, 1154, apto 302 - Zona 03, Maringá - PR",Rua Neo Alves Martins,1154,Zona 03,Maringá,PR,apto 302
242,1,,2,3,3,"0,00","168,00","989.000,00",0,,,0,0,0,False,Sobrado,,,[],0,-23.4387792,-51.9344843,"Rua São Jorge, 544 - Jardim Novo Horizonte, Maringá - PR",Rua São Jorge,544,Jardim Novo Horizonte,Maringá,PR,
243,1,,2,3,7,"0,00","174,00","989.000,00",0,,,0,0,0,False,Casa,,,[],0,-23.3886489,-51.9224630,"Rua Pioneiro Abílio Gaspar, 306 - Jardim Tóquio, Maringá - PR",Rua Pioneiro Abílio Gaspar,306,Jardim Tóquio,Maringá,PR,
244,0,8.0,8,3,1,"0,00","206,00","1.080.000,00",0,,,0,0,1,False,Sobrado,,,[],0,-23.40941740000001,-51.93978130000001,"Rua Professor Lauro Eduardo Werneck, 803 - Zona 07, Maringá - PR",Rua Professor Lauro Eduardo Werneck,803,Zona 07,Maringá,PR,
245,1,,3,3,2,"136,00","232,00","1.150.000,00",0,,,0,0,0,False,Apartamento,,,[],0,-23.4179641,-51.9333293,"Avenida Advogado Horácio Raccanello Filho, 5350, 9° andar - Zona 07, Maringá - PR",Avenida Advogado Horácio Raccanello Filho,5350,Zona 07,Maringá,PR,9° andar
246,2,,2,4,2,"250,89","368,38","1.200.000,00",0,201,20,0,0,0,False,Apartamento,,,"[{'name': 'Financiável', 'order': 6}]",0,-23.4247423,-51.944096,"Rua Silva Jardim, 190 - Zona 01 Centro, Maringá - PR",Rua Silva Jardim,190,Zona 01 Centro,Maringá,PR,
247,1,,2,3,2,"0,00","155,00","1.290.000,00",0,,,0,0,0,False,Casa,,,[],0,-23.4012684,-51.9228160,"Rua Pastor Anísio Francisco da Silva, 463 - Jardim Alvorada, Maringá - PR",Rua Pastor Anísio Francisco da Silva,463,Jardim Alvorada,Maringá,PR,
248,3,,1,5,4,"0,00","270,00","1.500.000,00",0,,,0,0,0,False,Sobrado,,,[],0,-23.3869280,-51.9242612,"Rua Fernando César Menezes Nagib Neme, 314 - Jardim Tóquio, Maringá - PR",Rua Fernando César Menezes Nagib Neme,314,Jardim Tóquio,Maringá,PR,
249,4,,0,5,4,"0,00","330,00","1.800.000,00",0,,,0,0,0,False,Casa,,,[],0,-23.4303940,-51.9211733,"Rua Monte Cáceros, 224 - Zona 03, Maringá - PR",Rua Monte Cáceros,224,Zona 03,Maringá,PR,
250,2,,2,5,4,"0,00","350,00","1.800.000,00",0,,,0,0,0,False,Casa,,,[],0,-23.4363622,-51.9621932,"Rua Ingá,  - Zona 05, Maringá - PR",Rua Ingá,,Zona 05,Maringá,PR,
251,3,,0,4,3,"171,87","325,28","1.890.000,00",0,402,6º,1,0,0,False,Apartamento,,,"[{'name': 'Financiável', 'order': 6}, {'name': 'Aceita permuta', 'order': 7}]",0,-23.4388402,-51.9396988,"Avenida Itororó, 1300, 6º pavimento - Zona 02, Maringá - PR",Avenida Itororó,1300,Zona 02,Maringá,PR,6º pavimento
252,1,,2,4,3,"0,00","322,00","1.900.000,00",0,,,0,0,0,False,Sobrado,,,[],0,-23.4059130,-51.9536830,"Rua Ametista, 1385 - Jardim Canadá 2ª Parte, Maringá - PR",Rua Ametista,1385,Jardim Canadá 2ª Parte,Maringá,PR,
253,3,,0,2,4,"0,00","254,94","2.000.000,00",0,,,0,0,0,False,Casa,,,[],0,-23.4432199,-51.9459315,"Rua Pioneiro Jurandino Rossi, 162, 162 - Jardim Cidade Monções, Maringá - PR",Rua Pioneiro Jurandino Rossi,162,Jardim Cidade Monções,Maringá,PR,162
254,3,,0,4,3,"176,00","370,23","2.150.000,00",0,2900,29,0,0,0,False,Apartamento,,,[],0,-23.4244782,-51.9420098,"Rua Arthur Thomas, 910 - Zona 01 Centro, Maringá - PR",Rua Arthur Thomas,910,Zona 01 Centro,Maringá,PR,
255,1,,2,3,4,"0,00","187,63","2.150.000,00",0,,,1,0,0,False,Casa,,,[],0,-23.4209995,-51.9330558,"Rua Setubal, 216 - Zona 08, Maringá - PR",Rua Setubal,216,Zona 08,Maringá,PR,
256,3,,0,5,3,"172,00","325,00","2.200.000,00",0,,,0,0,0,False,Apartamento,,,[],0,-23.4388402,-51.9396988,"Avenida Itororó, 1300, 8° - Zona 02, Maringá - PR",Avenida Itororó,1300,Zona 02,Maringá,PR,8°
257,3,,0,3,0,"176,91","0,00","2.290.000,00",0,,,0,0,0,False,Apartamento,,,[],0,-23.4161609,-51.9374511,"Avenida Prudente de Morais, 463, 303 - Zona 07, Maringá - PR",Avenida Prudente de Morais,463,Zona 07,Maringá,PR,303
258,3,,0,5,2,"0,00","284,00","2.390.000,00",0,,,0,0,0,False,Casa,,,[],0,-23.4444208,-51.9441067,"Rua Vitório Del Ângelo,  - Jardim Cidade Monções, Maringá - PR",Rua Vitório Del Ângelo,,Jardim Cidade Monções,Maringá,PR,
259,0,,4,5,4,"0,00","256,00","2.400.000,00",0,,,0,0,0,False,Casa,,,[],0,,,"Rua Jacob Porsak,  - Chácaras Aeroporto, Maringá - PR",Rua Jacob Porsak,,Chácaras Aeroporto,Maringá,PR,
260,3,,1,5,3,"218,00","348,00","2.500.000,00",0,,12,0,0,0,False,Apartamento,,,[],0,-23.4223165,-51.9332539,"Avenida São Paulo, 1086, 1201 - Zona 01 Centro, Maringá - PR",Avenida São Paulo,1086,Zona 01 Centro,Maringá,PR,1201
261,2,,2,3,4,"0,00","625,00","2.555.000,00",0,,,1,0,0,False,Sobrado,,,[],0,-23.4209995,-51.9330558,",  - Zona 05, Maringá - PR",,,Zona 05,Maringá,PR,
262,2,,2,4,4,"0,00","477,00","2.650.000,00",0,,,0,0,0,False,Sobrado,,,[],0,-23.4718342,-51.9063211,"Rua Jacob Porsak, , dt 02 qd 06 - Chácaras Aeroporto, Maringá - PR",Rua Jacob Porsak,,Chácaras Aeroporto,Maringá,PR,dt 02 qd 06
263,4,,0,6,3,"0,00","340,00","2.690.000,00",0,,,0,0,0,False,Sobrado,,,[],0,-23.4449405,-51.9466916,"Rua Affonso Hernandes Bittencourt, 848, 848 - Jardim Cidade Monções, Maringá - PR",Rua Affonso Hernandes Bittencourt,848,Jardim Cidade Monções,Maringá,PR,848
264,3,,0,1,3,"179,37","0,00","2.750.000,00",0,,,0,0,0,False,Apartamento,,,[],0,-23.4279363,-51.9266989,"Avenida Laguna, 733, 1701 - Zona 03, Maringá - PR",Avenida Laguna,733,Zona 03,Maringá,PR,1701
265,3,,1,5,4,"227,00","430,00","2.890.000,00",0,,22,0,0,0,False,Apartamento,,,[],0,-23.4229481,-51.9290204,"Rua Neo Alves Martins, 1570, 22 - Zona 01 Centro, Maringá - PR",Rua Neo Alves Martins,1570,Zona 01 Centro,Maringá,PR,22
266,4,,0,6,3,"0,00","360,00","2.990.000,00",0,,,0,0,0,False,Casa,,,[],0,-23.4464468,-51.9730029,"Rua Prefeito Sadao Inaoka, 351, 351 qd a - Parque Industrial, Maringá - PR",Rua Prefeito Sadao Inaoka,351,Parque Industrial,Maringá,PR,351 qd a
267,2,,2,5,4,"0,00","450,00","3.380.000,00",0,,,0,0,0,False,Sobrado,,,[],0,-23.4351502,-51.9326915,"Rua Moisés Marcondes, 264 - Zona 02, Maringá - PR",Rua Moisés Marcondes,264,Zona 02,Maringá,PR,
268,4,,0,5,4,"0,00","309,00","3.450.000,00",0,,,0,0,0,False,Casa,,,[],0,-23.4445794,-51.9585395,"Rua Pioneiro Domingos Salgueiro, 1725 - Jardim Guaporé, Maringá - PR",Rua Pioneiro Domingos Salgueiro,1725,Jardim Guaporé,Maringá,PR,
269,0,,3,6,6,"0,00","460,00","3.600.000,00",0,,,0,0,0,False,Casa,,,[],0,-23.4398794,-51.9187672,"Avenida Guedner, 1170 - Zona 08, Maringá - PR",Avenida Guedner,1170,Zona 08,Maringá,PR,
270,4,,0,5,4,"0,00","361,27","4.750.000,00",0,,,0,0,0,False,Casa e Sobrado em Condomínios,,,[],0,-23.362056,-52.0085815,"Estrada Romeirinha, 2413, 2413 - Jardins de Monet Residence, Maringá - PR",Estrada Romeirinha,2413,Jardins de Monet Residence,Maringá,PR,2413
271,2,,2,5,12,"0,00","573,00","4.950.000,00",0,,,0,0,0,False,Casa,,,[],0,-23.4429337,-51.9600539,"Rua Pioneiro José Tel, 1137, 1137 - Jardim Guaporé, Maringá - PR",Rua Pioneiro José Tel,1137,Jardim Guaporé,Maringá,PR,1137
272,5,,0,7,2,"0,00","419,69","4.990.000,00",0,,,0,0,0,False,Casa e Sobrado em Condomínios,,,[],0,-23.472089,-51.906143,"Rua Jacob Porsak, 257, casa 10 - Chácaras Aeroporto, Maringá - PR",Rua Jacob Porsak,257,Chácaras Aeroporto,Maringá,PR,casa 10
273,3,,0,5,4,"245,00","682,21","5.330.428,00",0,1802,18,1,0,0,False,Apartamento,,,[],0,-23.4233866,-51.9423303,"Avenida Xv de Novembro, 1000 - Zona 01 Centro, Maringá - PR",Avenida Xv de Novembro,1000,Zona 01 Centro,Maringá,PR,
274,4,,0,1,2,"0,00","379,75","5.900.000,00",0,,,0,0,0,False,Casa e Sobrado em Condomínios,,,[],0,-23.3620666,-52.0085711,"Estrada Romeirinha, 2413 - Jardins de Monet Residence, Maringá - PR",Estrada Romeirinha,2413,Jardins de Monet Residence,Maringá,PR,
275,3,,0,5,2,"0,00","484,00","6.200.000,00",0,,,0,0,0,False,Casa e Sobrado em Condomínios,,,[],0,-23.3620666,-52.0085711,"Estrada Romeirinha, 2413 - Jardins de Monet Residence, Maringá - PR",Estrada Romeirinha,2413,Jardins de Monet Residence,Maringá,PR,
276,4,,0,5,4,"618,00","0,00","7.300.000,00",0,,,0,0,0,False,Apartamento,,,[],0,-23.433924,-51.9287709,"Avenida São Paulo, 2508, 1402 - Vila Bosque, Maringá - PR",Avenida São Paulo,2508,Vila Bosque,Maringá,PR,1402
277,4,,0,6,4,"302,49","0,00","7.500.000,00",0,,,0,0,0,False,Apartamento,,,"[{'name': 'Aceita permuta', 'order': 7}]",0,-23.4363385,-51.9332869,"Avenida Presidente Juscelino Kubitschek de Oliveira, 369 - Zona 02, Maringá - PR",Avenida Presidente Juscelino Kubitschek de Oliveira,369,Zona 02,Maringá,PR,
278,5,,0,7,3,"0,00","650,00","8.500.000,00",0,,,1,0,0,False,Casa e Sobrado em Condomínios,,,[],0,-23.3620666,-52.0085711,"Estrada Romeirinha, 2413 - Jardins de Monet Residence, Maringá - PR",Estrada Romeirinha,2413,Jardins de Monet Residence,Maringá,PR,
279,3,,0,1,2,"0,00","378,91","0,00",0,,,0,0,0,False,Casa e Sobrado em Condomínios,,,[],0,-23.3620666,-52.0085711,"Estrada Romeirinha, 2413 - Jardins de Monet Residence, Maringá - PR",Estrada Romeirinha,2413,Jardins de Monet Residence,Maringá,PR,
280,0,,0,0,0,"0,00","21,21","23.000,00",0,178,,0,0,0,False,Apartamento,,,[],0,-23.4368362,-51.9257286,"Avenida São Paulo, 2925, vaga de garagem 178 do yano garden - Vila Bosque, Maringá - PR",Avenida São Paulo,2925,Vila Bosque,Maringá,PR,vaga de garagem 178 do yano garden
281,1,,2,0,1,"79,00","0,00","50.000,00",0,,,0,0,0,False,Apartamento,,,[],0,-23.41030700,-51.93048200,"Rua Santo Antônio, 86 - Zona 07, Maringá - PR",Rua Santo Antônio,86,Zona 07,Maringá,PR,
282,1,,0,1,0,"45,00","0,00","75.000,00",0,,,0,0,0,False,Apartamento,,,[],1,-23.4268209,-51.8927024,"Rua Zygmunt Krosnowski, 172, 306 - Parque Industrial, Maringá - PR",Rua Zygmunt Krosnowski,172,Parque Industrial,Maringá,PR,306
283,1,,1,2,1,"52,00","0,00","79.000,00",0,,,0,0,0,False,Apartamento,,,[],0,-23.4265569,-51.8927163,"Rua Zygmunt Krosnowski, 172 - Parque Industrial, Maringá - PR",Rua Zygmunt Krosnowski,172,Parque Industrial,Maringá,PR,
284,0,,0,0,0,"0,00","120,00","80.000,00",0,,,0,0,0,False,Casa,,,[],0,-23.42027400,-51.97763100,"Avenida Paranavaí, 358 - Zona 06, Maringá - PR",Avenida Paranavaí,358,Zona 06,Maringá,PR,
285,1,,1,2,1,"51,00","0,00","80.000,00",0,1904,19,0,0,0,False,Apartamento,,,[],1,-23.424854515678536,-51.91053983951721,"Avenida Advogado Horácio Raccanello Filho, 2878 - Vila Ipiranga, Maringá - PR",Avenida Advogado Horácio Raccanello Filho,2878,Vila Ipiranga,Maringá,PR,
286,0,,1,1,1,"28,00","0,00","85.000,00",0,,8,0,0,0,False,Apartamento,,,[],1,,,"Avenida São Paulo, 1150 - Zona 01 Centro, Maringá - PR",Avenida São Paulo,1150,Zona 01 Centro,Maringá,PR,
287,1,,0,1,0,"32,00","0,00","89.900,00",0,,,0,0,0,False,Flat,,,[],1,-23.4425562,-51.9379804,"Avenida Comendador Amorim Pedrosa Moleirinho, 1793, 1503 - Zona 02, Maringá - PR",Avenida Comendador Amorim Pedrosa Moleirinho,1793,Zona 02,Maringá,PR,1503
288,0,,2,1,1,"44,00","0,00","90.000,00",0,,3°,0,0,0,False,Apartamento,,,"[{'name': 'Financiável', 'order': 6}]",1,-23.4285951,-51.9720501,"Rua Castro Alves, 1390, proximo ao shopping catuai - Zona 06, Maringá - PR",Rua Castro Alves,1390,Zona 06,Maringá,PR,proximo ao shopping catuai
289,0,,2,2,1,"61,00","0,00","90.000,00",0,,,0,0,0,False,Apartamento,,,[],1,-23.4158494,-51.9515596,"Rua Rui Barbosa, 1262, 202 - Zona 07, Maringá - PR",Rua Rui Barbosa,1262,Zona 07,Maringá,PR,202
290,0,,2,2,1,"61,00","0,00","90.000,00",0,,,0,0,0,False,Apartamento,,,[],1,-23.4158494,-51.9515596,"Rua Rui Barbosa, 1262, 602 - Zona 07, Maringá - PR",Rua Rui Barbosa,1262,Zona 07,Maringá,PR,602
291,1,,1,1,1,"59,40","59,40","90.000,00",0,,,0,0,0,False,Apartamento,,,[],1,-23.4151177,-51.9487031,"Rua Rui Barbosa,  - Zona 07, Maringá - PR",Rua Rui Barbosa,,Zona 07,Maringá,PR,
292,0,,2,2,1,"61,00","0,00","90.000,00",0,,,0,0,0,False,Apartamento,,,[],1,-23.4158494,-51.9515596,"Rua Rui Barbosa, 1262, 402 - Zona 07, Maringá - PR",Rua Rui Barbosa,1262,Zona 07,Maringá,PR,402
293,0,,2,1,1,"43,84","54,76","99.900,00",0,,,0,0,0,False,Apartamento,,,[],1,-23.4209995,-51.9330558,"Avenida Pioneiro Antonio Ruiz Saldanha, 1826 - Parque Industrial, Maringá - PR",Avenida Pioneiro Antonio Ruiz Saldanha,1826,Parque Industrial,Maringá,PR,
294,1,,2,2,0,"79,60","0,00","100.000,00",0,,,0,0,0,False,Apartamento,,,[],1,-23.440576,-51.9125287,"Avenida Londrina, 1324, 207 - Zona 08, Maringá - PR",Avenida Londrina,1324,Zona 08,Maringá,PR,207
295,1,,0,1,1,"34,00","0,00","110.000,00",0,,17,0,0,0,False,Apartamento,,,[],0,-23.4204934,-51.9476206,"Praça José Bonifácio, 120 - Zona 01 Centro, Maringá - PR",Praça José Bonifácio,120,Zona 01 Centro,Maringá,PR,
296,0,,1,1,1,"18,00","25,15","120.000,00",0,,1,1,0,0,False,Apartamento,,,"[{'name': 'Financiável', 'order': 6}]",0,-23.4103881,-51.9480339,"Rua Quintino Bocaiúva, 890 - Zona 07, Maringá - PR",Rua Quintino Bocaiúva,890,Zona 07,Maringá,PR,
297,0,,0,1,1,"25,12","0,00","120.000,00",0,,,0,0,0,False,Kitnet e Studio,,,[],0,-23.4122198,-51.9475735,"Rua Quintino Bocaiúva, 890 - Zona 07, Maringá - PR",Rua Quintino Bocaiúva,890,Zona 07,Maringá,PR,
298,0,,1,1,1,"35,00","0,00","129.000,00",0,,,0,0,0,False,Apartamento,,,[],0,-23.4117336273193360000000000,-51.9471359252929700000000000,"Rua Tietê, 675 - Zona 07, Maringá - PR",Rua Tietê,675,Zona 07,Maringá,PR,
299,0,,2,1,1,"43,09","49,75","130.000,00",0,34,3,0,1,0,False,Apartamento,,,"[{'name': 'Aceita permuta', 'order': 7}]",0,-23.3918671,-51.9753783,"Avenida das Torres, , ap. 34 bl 04 - Jardim Guairacá, Maringá - PR",Avenida das Torres,,Jardim Guairacá,Maringá,PR,ap. 34 bl 04
300,0,,2,1,1,"43,00","43,00","130.000,00",0,,,0,0,0,False,Apartamento,,,[],0,,,"Avenida Vereador Antônio Bortolotto, , 05, 2, 204 - Conjunto Residencial Dona Angelina (Iguatemi), Maringá - PR",Avenida Vereador Antônio Bortolotto,,Conjunto Residencial Dona Angelina (Iguatemi),Maringá,PR,"05, 2, 204"
301,0,,2,1,1,"43,00","52,00","130.000,00",0,302,3,0,0,0,False,Apartamento,,,[],0,-23.370689,-52.0658644,"Avenida Vereador Antônio Bortolotto,  - Distrito de Iguatemi (Iguatemi), Maringá - PR",Avenida Vereador Antônio Bortolotto,,Distrito de Iguatemi (Iguatemi),Maringá,PR,
302,1,,0,1,0,"27,00","32,00","132.500,00",0,,,0,0,0,False,Apartamento,,,[],0,-23.44203950220003,-51.93852543305585,"Avenida Comendador Amorim Pedrosa Moleirinho, 1793 - Vila Emília, Maringá - PR",Avenida Comendador Amorim Pedrosa Moleirinho,1793,Vila Emília,Maringá,PR,
303,0,,2,1,1,"45,00","0,00","138.000,00",0,,,0,0,0,False,Apartamento,,,[],0,-23.3854665,-51.9723564,",  - Jardim Guairacá, Maringá - PR",,,Jardim Guairacá,Maringá,PR,
304,0,,2,1,1,"45,00","49,00","140.000,00",0,,4,0,0,0,False,Apartamento,,,[],0,-23.3854665,-51.9723564,"Rua Jorge Benedito Seraval, 3055, bloco 8 - Jardim Três Lagoas, Maringá - PR",Rua Jorge Benedito Seraval,3055,Jardim Três Lagoas,Maringá,PR,bloco 8
305,1,,0,1,1,"46,00","0,00","140.000,00",0,,,0,0,0,False,Apartamento,,,[],0,-23.4809472,-52.0075863,",  - Parque Industrial Mário Bulhões, Maringá - PR",,,Parque Industrial Mário Bulhões,Maringá,PR,
306,0,,0,1,0,"0,00","80,00","140.000,00",0,,,0,0,0,False,Casa,,,[],0,-23.41643800,-51.89711600,"Avenida Guaiapó, 2878 - Parque Residencial Patrícia, Maringá - PR",Avenida Guaiapó,2878,Parque Residencial Patrícia,Maringá,PR,
307,0,,2,1,1,"43,00","0,00","140.000,00",0,,,0,0,0,False,Apartamento,,,[],0,-23.46525530000000,-51.92046029999999,"Rua Pioneiro João Perin, 649, 24 - Parque Tarumã, Maringá - PR",Rua Pioneiro João Perin,649,Parque Tarumã,Maringá,PR,24
308,0,,1,1,1,"26,00","45,00","140.000,00",0,,,0,0,0,False,Apartamento,,,[],0,-23.4438604,-51.9154100,"Avenida Guedner, 1571, bl d ap 709 - Zona 08, Maringá - PR",Avenida Guedner,1571,Zona 08,Maringá,PR,bl d ap 709
309,0,,1,1,1,"33,00","0,00","145.000,00",0,12,,0,0,0,False,Flat,,,[],0,-23.4400189,-51.9141795,"Avenida Guedner, 1163, bloco 12 - Zona 08, Maringá - PR",Avenida Guedner,1163,Zona 08,Maringá,PR,bloco 12
310,0,1.0,1,1,0,"0,00","0,00","148.000,00",0,103,1,1,0,0,False,Apartamento,,,[],0,-23.4077852,-51.947042,"Rua Manoel de Macedo, 290 - Zona 07, Maringá - PR",Rua Manoel de Macedo,290,Zona 07,Maringá,PR,
311,0,,2,1,0,"39,00","52,00","149.000,00",0,,,0,0,0,False,Apartamento,,,[],0,-23.3854125,-51.9721624,"Rua Jorge Benedito Seraval, 3531, baixo - Jardim Guairacá, Maringá - PR",Rua Jorge Benedito Seraval,3531,Jardim Guairacá,Maringá,PR,baixo
312,0,,2,1,1,"43,00","49,00","149.000,00",0,,3,0,0,0,False,Apartamento,,,[],0,-23.3854125,-51.9721624,"Rua Jorge Benedito Seraval, 3531 - Jardim Guairacá, Maringá - PR",Rua Jorge Benedito Seraval,3531,Jardim Guairacá,Maringá,PR,
313,0,,1,1,0,"24,79","45,11","150.000,00",0,,,0,0,0,False,Apartamento,,,[],0,-23.4091071,-51.945586,"Rua Mandaguari, 638 - Zona 07, Maringá - PR",Rua Mandaguari,638,Zona 07,Maringá,PR,
314,0,,1,1,0,"18,85","46,34","150.000,00",0,104,1,0,0,0,False,Apartamento,,,[],0,-23.4801774,-52.0088607,"Avenida Doutor Vladimir Babkov, 565 - Parque Industrial Mário Bulhões, Maringá - PR",Avenida Doutor Vladimir Babkov,565,Parque Industrial Mário Bulhões,Maringá,PR,
315,0,,2,1,1,"0,00","0,00","150.000,00",0,04,,0,0,0,False,Apartamento,,,[],0,-23.4665561,-51.9221885,"Rua Pioneiro João Perin, 1211, bloco 01 - Parque Tarumã, Maringá - PR",Rua Pioneiro João Perin,1211,Parque Tarumã,Maringá,PR,bloco 01
316,0,1.0,1,1,1,"0,00","0,00","150.000,00",0,207,,0,0,1,False,Apartamento,,,[],0,-23.4126267,-51.946755,"Rua Osvaldo Cruz, 789 - Zona 07, Maringá - PR",Rua Osvaldo Cruz,789,Zona 07,Maringá,PR,
317,0,,1,1,1,"21,00","35,00","150.000,00",0,205,,0,0,1,False,Kitnet e Studio,,,"[{'name': 'Financiável', 'order': 6}]",0,-23.4113228,-51.9440514,",  - Zona 07, Maringá - PR",,,Zona 07,Maringá,PR,
318,0,,2,1,1,"37,26","49,75","150.000,00",0,31,,0,0,0,False,Apartamento,,,[],0,-23.392822,-51.978314,"Avenida das Torres, 3163 - Jardim Guairacá, Maringá - PR",Avenida das Torres,3163,Jardim Guairacá,Maringá,PR,
319,0,,2,1,1,"43,00","0,00","150.000,00",0,,,0,0,0,False,Apartamento,,,[],0,-23.46490640000000,-51.92411350000000,"Rua Pioneiro João Perin, 649, 33 - Parque Tarumã, Maringá - PR",Rua Pioneiro João Perin,649,Parque Tarumã,Maringá,PR,33
320,0,,2,1,1,"43,00","65,00","150.000,00",0,04,,0,0,0,False,Apartamento,,,"[{'name': 'Financiável', 'order': 6}]",0,-23.4661431,-51.9218962,"Rua Pioneiro João Perin, 1211 - Parque Tarumã, Maringá - PR",Rua Pioneiro João Perin,1211,Parque Tarumã,Maringá,PR,
321,1,,0,1,1,"46,00","0,00","150.000,00",0,,,0,0,0,False,Apartamento,,,[],0,-23.4809472,-52.0075863,",  - Parque Industrial Mário Bulhões, Maringá - PR",,,Parque Industrial Mário Bulhões,Maringá,PR,
322,1,,1,2,0,"55,00","55,00","150.000,00",0,,,0,0,0,False,Apartamento,,,[],0,-23.4476295069183140000000000,-51.9200149617417850000000000,"Rua Ernesto Mariucci, 489 - Jardim Aclimação, Maringá - PR",Rua Ernesto Mariucci,489,Jardim Aclimação,Maringá,PR,
323,0,,2,1,2,"0,00","59,00","155.000,00",0,,,0,0,0,False,Casa,,,[],0,-23.3766071,-52.0594412,"Rua Antônia Furlan Borri, , casa - Conjunto Habitacional Albino Meneguetti (Iguatemi), Maringá - PR",Rua Antônia Furlan Borri,,Conjunto Habitacional Albino Meneguetti (Iguatemi),Maringá,PR,casa
324,0,,1,1,1,"24,79","45,11","155.000,00",0,,,0,0,0,False,Apartamento,,,[],0,-23.4091071,-51.945586,"Rua Mandaguari, 638 - Zona 07, Maringá - PR",Rua Mandaguari,638,Zona 07,Maringá,PR,
325,0,,1,0,1,"35,00","65,36","155.000,00",0,,,0,0,0,False,Apartamento,,,[],0,-23.4091071,-51.945586,"Rua Mandaguari, 638 - Zona 07, Maringá - PR",Rua Mandaguari,638,Zona 07,Maringá,PR,
326,0,,1,1,0,"32,56","0,00","155.000,00",0,14,1,0,0,0,False,Apartamento,,,[],0,-23.4439402,-51.9366804,"Rua Professor Giampero Monacci, 482 - Jardim Novo Horizonte, Maringá - PR",Rua Professor Giampero Monacci,482,Jardim Novo Horizonte,Maringá,PR,
327,0,,1,1,0,"33,00","0,00","158.000,00",0,,,0,0,0,False,Kitnet e Studio,,,"[{'name': 'Financiável', 'order': 6}]",0,-23.39758539999999,-51.93934829999999,"Rua Luiz Corrêa, 283 - Cidade Jardim, Maringá - PR",Rua Luiz Corrêa,283,Cidade Jardim,Maringá,PR,
328,0,,1,1,1,"33,00","0,00","158.000,00",0,,,0,0,0,False,Apartamento,,,[],0,,,"Rua Luiz Corrêa, 283 - Cidade Jardim, Maringá - PR",Rua Luiz Corrêa,283,Cidade Jardim,Maringá,PR,
329,1,,0,1,1,"39,75","0,00","159.000,00",0,,,0,0,0,False,Apartamento,,,[],0,-23.4001281,-51.957417,"Rua Caqui, 58, 502 - Vila Vardelina, Maringá - PR",Rua Caqui,58,Vila Vardelina,Maringá,PR,502
330,0,,2,1,1,"43,00","50,00","159.000,00",0,,1,0,0,0,False,Apartamento,,,[],0,-23.3854125,-51.9721624,"Rua Jorge Benedito Seraval, 3531, bl 09 ap11 - Jardim Guairacá, Maringá - PR",Rua Jorge Benedito Seraval,3531,Jardim Guairacá,Maringá,PR,bl 09 ap11
331,0,,1,1,1,"32,54","0,00","160.000,00",0,,,0,0,1,False,Kitnet e Studio,,,"[{'name': 'Financiável', 'order': 6}]",0,-23.3976256,-51.9394665,"Rua Luiz Corrêa, 263, proximo a uem - Cidade Jardim, Maringá - PR",Rua Luiz Corrêa,263,Cidade Jardim,Maringá,PR,proximo a uem
332,1,,0,1,1,"28,00","60,00","160.000,00",0,,,0,1,1,False,Kitnet e Studio,,,"[{'name': 'Financiável', 'order': 6}]",0,-23.412240400523775,-51.946611462457284,"Rua Osvaldo Cruz, 789, zona 07 - Zona 07, Maringá - PR",Rua Osvaldo Cruz,789,Zona 07,Maringá,PR,zona 07
333,1,1.0,0,1,1,"0,00","54,00","160.000,00",0,01,,0,0,1,False,Apartamento,,,[],0,-23.44045091868545,-51.91445589065552,"Avenida Guedner, 1163 - Zona 08, Maringá - PR",Avenida Guedner,1163,Zona 08,Maringá,PR,
334,0,,1,1,1,"27,00","0,00","160.000,00",0,,,0,0,0,False,Apartamento,,,[],0,-23.4147724,-51.9486539,"Rua Belo Horizonte, 352, kitnet 09 - Jardim Ipiranga, Maringá - PR",Rua Belo Horizonte,352,Jardim Ipiranga,Maringá,PR,kitnet 09
335,0,,2,1,1,"45,00","0,00","160.000,00",0,,,0,0,0,False,Apartamento,,,[],0,-23.4669104,-51.9223093,"Rua Pioneiro João Perin, 1211 - Parque Tarumã, Maringá - PR",Rua Pioneiro João Perin,1211,Parque Tarumã,Maringá,PR,
336,0,,2,1,1,"0,00","92,00","160.000,00",0,,,0,0,0,False,Casa,,,[],0,-23.4209995,-51.9330558,"Rua José Teixeira Neto, 75 - Distrito de Floriano (Floriano), Maringá - PR",Rua José Teixeira Neto,75,Distrito de Floriano (Floriano),Maringá,PR,
337,0,,2,1,1,"45,00","0,00","160.000,00",0,,,0,0,0,False,Apartamento,,,[],0,-23.46617200,-51.92157900,"Rua Pioneiro João Perin, 1050 - Parque Tarumã, Maringá - PR",Rua Pioneiro João Perin,1050,Parque Tarumã,Maringá,PR,
338,0,,1,0,1,"0,00","17,00","160.000,00",0,,,0,0,0,False,Casa,,,[],0,-23.441868991330242,-51.89271537641601,"Rua Pioneiro Henrique Alves de Souza, 680 - Parque Residencial Aeroporto, Maringá - PR",Rua Pioneiro Henrique Alves de Souza,680,Parque Residencial Aeroporto,Maringá,PR,
339,1,,0,0,1,"24,74","51,69","160.000,00",0,104,1,0,0,1,False,Kitnet e Studio,,,"[{'name': 'Financiável', 'order': 6}, {'name': 'Aceita permuta', 'order': 7}]",0,-23.4113543,-51.9435001,",  - Zona 07, Maringá - PR",,,Zona 07,Maringá,PR,
340,0,,1,1,1,"33,00","0,00","160.000,00",0,,,0,0,0,False,Apartamento,,,[],0,-23.39866500,-51.93673200,"Viela Armando Raul Espejo Aquije, 600 - Vila Esperança, Maringá - PR",Viela Armando Raul Espejo Aquije,600,Vila Esperança,Maringá,PR,
341,1,,0,1,1,"30,23","0,00","160.000,00",0,,,0,0,1,False,Apartamento,,,[],0,-23.4105275,-51.9472803,"Rua Bragança, 530, apto: 403 - Zona 07, Maringá - PR",Rua Bragança,530,Zona 07,Maringá,PR,apto: 403
342,0,,1,1,1,"34,00","44,00","160.000,00",0,,,0,0,0,False,Apartamento,,,[],0,-23.4105447,-51.9480878,"Rua Quintino Bocaiúva, 874, ap 01 - Zona 07, Maringá - PR",Rua Quintino Bocaiúva,874,Zona 07,Maringá,PR,ap 01
343,0,,2,1,1,"43,47","50,00","160.000,00",0,,2°,0,1,1,False,Apartamento,,,"[{'name': 'Financiável', 'order': 6}]",0,-23.4661431,-51.9218962,",  - Parque Tarumã, Maringá - PR",,,Parque Tarumã,Maringá,PR,
344,1,,2,2,1,"80,00","0,00","160.000,00",0,,,0,0,0,False,Apartamento,,,[],0,-23.44970133520032,-51.92558022222900,"Rua Moscados, 150, 704 - Vila Marumby, Maringá - PR",Rua Moscados,150,Vila Marumby,Maringá,PR,704
345,0,,1,1,1,"32,00","343.032,00","160.000,00",0,,,0,0,0,False,Kitnet e Studio,,,[],0,-51.938807,-23.39778,",  - Cidade Jardim, Maringá - PR",,,Cidade Jardim,Maringá,PR,
346,0,,2,1,0,"43,00","0,00","160.000,00",0,,,0,0,0,False,Apartamento,,,[],0,-23.46886100,-51.92454100,"Rua Ataulfo Alves, 833, bl 11 ap 21 - 2 andar - Conjunto Residencial Cidade Alta, Maringá - PR",Rua Ataulfo Alves,833,Conjunto Residencial Cidade Alta,Maringá,PR,bl 11 ap 21 - 2 andar
347,0,,2,1,1,"51,00","0,00","163.000,00",0,,,0,0,0,False,Apartamento,,,[],0,-23.44190200,-51.92885100,"Rua Adolfo Alves Ferreira, 64, 1º andar, 202 - Vila Marumby, Maringá - PR",Rua Adolfo Alves Ferreira,64,Vila Marumby,Maringá,PR,"1º andar, 202"
348,0,,1,1,1,"33,00","0,00","165.000,00",0,,,0,0,0,False,Apartamento,,,[],0,-23.3975854,-51.9393483,"Rua Luiz Corrêa, 283 - Cidade Jardim, Maringá - PR",Rua Luiz Corrêa,283,Cidade Jardim,Maringá,PR,
349,0,,1,1,1,"33,00","0,00","165.000,00",0,,,0,0,0,False,Apartamento,,,[],0,-23.3975854,-51.9393483,"Rua Luiz Corrêa, 283, 3 - Cidade Jardim, Maringá - PR",Rua Luiz Corrêa,283,Cidade Jardim,Maringá,PR,3
350,0,,1,1,0,"39,75","0,00","165.000,00",0,,,0,0,0,False,Apartamento,,,[],0,-23.4001281,-51.957417,"Rua Caqui, 58, 103 - Vila Vardelina, Maringá - PR",Rua Caqui,58,Vila Vardelina,Maringá,PR,103
351,0,,3,1,1,"80,00","0,00","165.000,00",0,H,,0,0,0,False,Apartamento,,,[],0,-23.4061142,-51.94423159999999,"Avenida Doutor Mário Clapier Urbinati, 724, torre h - Zona 07, Maringá - PR",Avenida Doutor Mário Clapier Urbinati,724,Zona 07,Maringá,PR,torre h
352,0,,1,1,1,"39,00","52,00","165.000,00",0,,1,0,0,0,False,Apartamento,,,[],0,-23.4065021,-51.9452988,"Rua Jangada, 507, bl b ap 12 - Zona 07, Maringá - PR",Rua Jangada,507,Zona 07,Maringá,PR,bl b ap 12
353,0,,1,1,0,"33,00","0,00","165.000,00",0,,,0,0,0,False,Apartamento,,,"[{'name': 'Financiável', 'order': 6}]",0,,,",  - Cidade Jardim, Maringá - PR",,,Cidade Jardim,Maringá,PR,
354,0,,1,1,1,"32,54","34,31","165.000,00",0,3,,0,0,0,False,Apartamento,,,[],0,-23.3974521,-51.9397437,"Rua Luiz Corrêa, 243, bloco g - Cidade Jardim, Maringá - PR",Rua Luiz Corrêa,243,Cidade Jardim,Maringá,PR,bloco g
355,0,,2,1,1,"54,00","0,00","165.000,00",0,,3,0,0,0,False,Apartamento,,,[],0,-23.4209995,-51.9330558,"Rua Pioneiro João Perin, 1211, res. ataulfo alves, bloco 11 - Parque Tarumã, Maringá - PR",Rua Pioneiro João Perin,1211,Parque Tarumã,Maringá,PR,"res. ataulfo alves, bloco 11"
356,0,,1,1,1,"33,00","0,00","165.000,00",0,,,0,1,1,False,Kitnet e Studio,,,"[{'name': 'Financiável', 'order': 6}]",0,-23.3975854,-51.9393483,"Rua Luiz Corrêa, 283 - Cidade Jardim, Maringá - PR",Rua Luiz Corrêa,283,Cidade Jardim,Maringá,PR,
357,0,,1,1,1,"32,54","34,30","165.000,00",0,,1°,0,0,0,False,Apartamento,,,[],0,-23.39749559999999,-51.93931229999999,"Rua Luiz Corrêa, , bloco g - Cidade Jardim, Maringá - PR",Rua Luiz Corrêa,,Cidade Jardim,Maringá,PR,bloco g
358,0,,1,1,0,"0,00","45,00","168.000,00",0,,,0,0,0,False,Kitnet e Studio,,,[],0,-23.40710126713464,-51.94267661163939,"Avenida Doutor Mário Clapier Urbinati, 344 - Zona 07, Maringá - PR",Avenida Doutor Mário Clapier Urbinati,344,Zona 07,Maringá,PR,
359,0,,2,1,1,"43,00","50,00","169.000,00",0,,3,0,0,0,False,Apartamento,,,[],0,-23.3854125,-51.9721624,"Rua Jorge Benedito Seraval, 3531, bl 04 ap 33 - Jardim Guairacá, Maringá - PR",Rua Jorge Benedito Seraval,3531,Jardim Guairacá,Maringá,PR,bl 04 ap 33
360,0,,1,1,1,"29,00","40,00","169.900,00",0,,,0,0,0,False,Kitnet e Studio,,,[],0,-23.41074400,-51.94646400,"Rua Bragança, 441, 1, 117 - Zona 07, Maringá - PR",Rua Bragança,441,Zona 07,Maringá,PR,"1, 117"
361,1,,0,0,1,"21,00","45,00","170.000,00",0,301,3,0,0,0,False,Kitnet e Studio,,,[],0,-23.4070326,-51.9424494,"Avenida Doutor Mário Clapier Urbinati, 344, apto 301 - Zona 07, Maringá - PR",Avenida Doutor Mário Clapier Urbinati,344,Zona 07,Maringá,PR,apto 301
362,0,,1,1,1,"37,00","76,58","170.000,00",0,,,0,0,0,False,Apartamento,,,[],0,-23.4111195,-51.9464633,"Rua Tietê, 584, apto: 04 - Zona 07, Maringá - PR",Rua Tietê,584,Zona 07,Maringá,PR,apto: 04
363,0,1.0,1,1,1,"18,85","0,00","170.000,00",0,305,3,0,0,0,False,Apartamento,,,[],0,-23.4801774,-52.0088607,"Avenida Doutor Vladimir Babkov, 565 - Parque Industrial Mário Bulhões, Maringá - PR",Avenida Doutor Vladimir Babkov,565,Parque Industrial Mário Bulhões,Maringá,PR,
364,0,,3,1,1,"54,00","70,00","170.000,00",0,,,0,0,0,False,Apartamento,,,[],0,,,"Rua Madre Mônica Maria, 255 - Conjunto Habitacional Lea Leal, Maringá - PR",Rua Madre Mônica Maria,255,Conjunto Habitacional Lea Leal,Maringá,PR,
365,0,,1,1,1,"32,00","0,00","170.000,00",0,,,0,0,0,False,Kitnet e Studio,,,[],0,-23.39714900,-51.93975500,"Rua Luiz Corrêa, 283, g03, terreo - Cidade Jardim, Maringá - PR",Rua Luiz Corrêa,283,Cidade Jardim,Maringá,PR,"g03, terreo"
366,0,,1,1,1,"32,54","34,31","170.000,00",0,4,Terreo,0,0,0,False,Apartamento,,,[],0,-23.3974521,-51.9397437,"Rua Luiz Corrêa, 243, bloco c - Cidade Jardim, Maringá - PR",Rua Luiz Corrêa,243,Cidade Jardim,Maringá,PR,bloco c
367,0,,2,1,3,"0,00","44,00","170.000,00",0,,,0,0,0,False,Casa,,,[],0,-23.526664500000003,-52.0564954,"Rua Otacílio Barboza, 162, floriano - Distrito de Floriano (Floriano), Maringá - PR",Rua Otacílio Barboza,162,Distrito de Floriano (Floriano),Maringá,PR,floriano
368,0,,2,1,1,"43,00","50,00","170.000,00",0,,,0,0,0,False,Apartamento,,,[],0,-23.46629700,-51.92140300,"Rua Ataulfo Alves, 833, apto 14, bloco 10, 10, 14 - Conjunto Residencial Cidade Alta, Maringá - PR",Rua Ataulfo Alves,833,Conjunto Residencial Cidade Alta,Maringá,PR,"apto 14, bloco 10, 10, 14"
369,0,,1,1,1,"33,00","0,00","170.000,00",0,,,0,0,0,False,Kitnet e Studio,,,[],0,-23.3975854,-51.9393483,"Rua Luiz Corrêa, 283, 01 - Cidade Jardim, Maringá - PR",Rua Luiz Corrêa,283,Cidade Jardim,Maringá,PR,01
370,0,,0,1,1,"27,00","62,00","170.000,00",0,,,0,0,0,False,Kitnet e Studio,,,[],0,-23.44484100,-51.91962900,"Rua Londrina, 101, 1º, 11 - Jardim Aclimação, Maringá - PR",Rua Londrina,101,Jardim Aclimação,Maringá,PR,"1º, 11"
371,0,,1,1,1,"32,54","34,30","170.000,00",0,,,0,0,0,False,Apartamento,,,[],0,-23.39758539999999,-51.93934829999999,"Rua Luiz Corrêa,  - Cidade Jardim, Maringá - PR",Rua Luiz Corrêa,,Cidade Jardim,Maringá,PR,
372,0,,2,1,0,"0,00","100,00","170.000,00",0,,,0,0,0,False,Casa,,,[],0,-23.5263427,-52.0568941,"Rua Emídio Felipe Mariano, 227 - Distrito de Floriano (Floriano), Maringá - PR",Rua Emídio Felipe Mariano,227,Distrito de Floriano (Floriano),Maringá,PR,
373,0,,1,1,1,"33,00","0,00","170.000,00",0,,,0,0,0,False,Apartamento,,,[],0,-23.3975854,-51.9393483,"Rua Luiz Corrêa, 283 - Cidade Jardim, Maringá - PR",Rua Luiz Corrêa,283,Cidade Jardim,Maringá,PR,
374,0,,1,1,0,"40,00","0,00","172.000,00",0,,,0,0,0,False,Apartamento,,,[],0,-23.40674100,-51.93009600,"Avenida Morangueira, 662 - Vila Santo Antônio, Maringá - PR",Avenida Morangueira,662,Vila Santo Antônio,Maringá,PR,
375,0,,1,1,0,"39,00","0,00","172.000,00",0,,,0,0,0,False,Apartamento,,,[],0,-23.4101022,-51.9316796,"Avenida Morangueira, 261, 31 - Zona 07, Maringá - PR",Avenida Morangueira,261,Zona 07,Maringá,PR,31
376,0,,1,1,0,"39,00","0,00","172.000,00",0,,,0,0,0,False,Apartamento,,,[],0,-23.4101022,-51.9316796,"Avenida Morangueira, 261 - Zona 07, Maringá - PR",Avenida Morangueira,261,Zona 07,Maringá,PR,
377,0,,1,1,1,"34,00","50,00","174.900,00",0,,,0,1,1,False,Apartamento,,,"[{'name': 'Financiável', 'order': 6}]",0,-23.3976256,-51.9394665,"Rua Luiz Corrêa, 243 - Cidade Jardim, Maringá - PR",Rua Luiz Corrêa,243,Cidade Jardim,Maringá,PR,
378,1,,2,2,1,"64,00","0,00","175.000,00",0,,,0,0,0,False,Apartamento,,,[],0,-23.4477522,-51.9201116,"Rua Ernesto Mariucci, 480 - Jardim Aclimação, Maringá - PR",Rua Ernesto Mariucci,480,Jardim Aclimação,Maringá,PR,
379,1,,1,1,1,"55,00","0,00","175.000,00",0,405,4,0,0,1,False,Apartamento,,,"[{'name': 'Financiável', 'order': 6}]",1,-23.4477522,-51.9201116,"Rua Ernesto Mariucci, 480 - Jardim Aclimação, Maringá - PR",Rua Ernesto Mariucci,480,Jardim Aclimação,Maringá,PR,
380,0,,1,1,1,"21,36","0,00","175.000,00",0,,,0,0,0,False,Kitnet e Studio,,,[],0,-23.4064844,-51.9424479,"Rua Professor Itamar Orlando Soares, 359, 808 - Zona 07, Maringá - PR",Rua Professor Itamar Orlando Soares,359,Zona 07,Maringá,PR,808
381,0,,2,1,1,"50,00","50,00","175.000,00",0,13,,0,0,0,False,Apartamento,,,"[{'name': 'Financiável', 'order': 6}]",0,-23.4665828,-51.9100293,"Rua Pioneiro Paschoal Locatelli, 606, bl 06 - Conjunto Residencial Cidade Alta, Maringá - PR",Rua Pioneiro Paschoal Locatelli,606,Conjunto Residencial Cidade Alta,Maringá,PR,bl 06
382,0,,3,1,1,"55,00","75,00","175.000,00",0,,3,0,0,0,False,Apartamento,,,"[{'name': 'Financiável', 'order': 6}]",0,-23.455362873052,-51.922864601852,"Avenida Guedner, 3060, não possui elevador - Parque da Gávea, Maringá - PR",Avenida Guedner,3060,Parque da Gávea,Maringá,PR,não possui elevador
383,0,,1,1,1,"21,00","0,00","175.000,00",0,,,0,0,0,False,Apartamento,,,[],0,-23.41004480000000,-51.94145770000000,"Rua Tietê, 57, 403 - Zona 07, Maringá - PR",Rua Tietê,57,Zona 07,Maringá,PR,403
384,0,,1,1,1,"25,00","0,00","179.000,00",0,,,0,0,0,False,Kitnet e Studio,,,[],0,-23.41020800,-51.94292800,"Rua Tietê, 200 - Zona 07, Maringá - PR",Rua Tietê,200,Zona 07,Maringá,PR,
385,1,,2,1,2,"0,00","70,00","180.000,00",0,,,0,0,0,False,Casa,,,[],0,-23.4209995,-51.9330558,"Rua Leonildo Rubio, 416 - Parque Tarumã, Maringá - PR",Rua Leonildo Rubio,416,Parque Tarumã,Maringá,PR,
386,0,,1,1,1,"24,88","58,81","180.000,00",0,,3,1,0,0,False,Apartamento,,,[],0,-23.4079811,-51.9471145,"Rua Manoel de Macedo, 290 - Zona 07, Maringá - PR",Rua Manoel de Macedo,290,Zona 07,Maringá,PR,
387,0,,1,1,0,"39,58","55,53","180.000,00",0,31,3º andar,0,0,1,False,Apartamento,,,"[{'name': 'Financiável', 'order': 6}]",0,-23.4098825,-51.9332862,"Rua Clementina Basseto, 171 - Zona 07, Maringá - PR",Rua Clementina Basseto,171,Zona 07,Maringá,PR,
388,0,,2,1,1,"46,00","0,00","180.000,00",0,,,0,0,0,False,Apartamento,,,[],0,-23.44842600,-51.93410600,"Rua Monsenhor Tanaka, 300, esq. arq. nildo ribeiro da rocha, 11, 33 - Vila Emília, Maringá - PR",Rua Monsenhor Tanaka,300,Vila Emília,Maringá,PR,"esq. arq. nildo ribeiro da rocha, 11, 33"
389,0,,1,1,1,"24,23","58,15","180.000,00",0,,2,0,0,0,False,Apartamento,,,[],0,-23.415207722218383,-51.94850648095093,"Rua Belo Horizonte, 352 - Jardim Ipiranga, Maringá - PR",Rua Belo Horizonte,352,Jardim Ipiranga,Maringá,PR,
390,0,,3,1,1,"50,00","0,00","180.000,00",0,,,0,0,0,False,Apartamento,,,[],0,-23.4553354,-51.9229397,"Avenida Guedner, 3060, 402 - Zona 08, Maringá - PR",Avenida Guedner,3060,Zona 08,Maringá,PR,402
391,0,,2,1,1,"49,00","0,00","180.000,00",0,,,0,0,0,False,Apartamento,,,[],0,-23.46506900,-51.91011100,"Rua Pioneiro Paschoal Locatelli, 1400 - Conjunto Residencial Cidade Alta, Maringá - PR",Rua Pioneiro Paschoal Locatelli,1400,Conjunto Residencial Cidade Alta,Maringá,PR,
392,0,,2,1,1,"42,81","46,57","180.000,00",0,03,01,0,0,0,False,Apartamento,,,[],0,-23.4506126,-51.9097815,"Avenida José Alves Nendo, 1256 - Jardim São Silvestre, Maringá - PR",Avenida José Alves Nendo,1256,Jardim São Silvestre,Maringá,PR,
393,1,,0,1,1,"43,00","51,00","180.000,00",0,,,0,0,0,False,Apartamento,,,[],0,-23.4103625341723800000000000,-51.9481199906828500000000000,"Rua Quintino Bocaiúva, 874 - Zona 07, Maringá - PR",Rua Quintino Bocaiúva,874,Zona 07,Maringá,PR,
394,0,,1,1,1,"29,13","54,48","180.000,00",0,,,0,0,1,False,Kitnet e Studio,,,[],0,-23.4106152,-51.946453,"Rua Bragança, 441 - Zona 07, Maringá - PR",Rua Bragança,441,Zona 07,Maringá,PR,
395,1,,0,0,1,"0,00","60,00","180.000,00",0,,,0,0,0,False,Kitnet e Studio,,,[],0,-23.407756309733486,-51.94066314115601,"Avenida Doutor Mário Clapier Urbinati, 61 - Zona 07, Maringá - PR",Avenida Doutor Mário Clapier Urbinati,61,Zona 07,Maringá,PR,
396,0,,2,1,1,"43,35","0,00","180.000,00",0,01,,0,0,0,False,Apartamento,,,[],0,-23.4498372,-51.9107474,"Avenida José Alves Nendo, 1256, apto 01 bloco 19 - Jardim São Silvestre, Maringá - PR",Avenida José Alves Nendo,1256,Jardim São Silvestre,Maringá,PR,apto 01 bloco 19
397,1,1.0,0,1,1,"0,00","0,00","180.000,00",0,13-12,,0,0,1,False,Kitnet e Studio,,,[],0,-23.44045091868545,-51.91445589065552,"Avenida Guedner, 1163 - Zona 08, Maringá - PR",Avenida Guedner,1163,Zona 08,Maringá,PR,
398,0,,2,1,1,"50,00","78,00","180.000,00",0,,,0,0,0,False,Apartamento,,,[],0,-23.465345379565,-51.922633535968,"Rua Pioneiro João Perin, 649 - Parque Tarumã, Maringá - PR",Rua Pioneiro João Perin,649,Parque Tarumã,Maringá,PR,
399,0,,1,1,1,"35,00","35,00","180.000,00",0,,,0,0,0,False,Apartamento,,,[],0,-23.4163266,-51.9469747,"Rua José Clemente, 781, apto 304 - Zona 07, Maringá - PR",Rua José Clemente,781,Zona 07,Maringá,PR,apto 304
400,1,,0,1,0,"20,00","0,00","180.000,00",0,,2,0,0,0,False,Apartamento,,,[],0,-23.4085792,-51.941178,"Rua Professor Guido Inácio Bersch, 178 - Zona 07, Maringá - PR",Rua Professor Guido Inácio Bersch,178,Zona 07,Maringá,PR,
401,0,,2,1,1,"45,60","52,76","180.000,00",0,704,7,0,0,1,False,Apartamento,,,"[{'name': 'Financiável', 'order': 6}]",0,-23.4557099,-51.9245815,"Rua Cantor Raul Seixas, 343, bl. d - Jardim Ipanema, Maringá - PR",Rua Cantor Raul Seixas,343,Jardim Ipanema,Maringá,PR,bl. d
402,0,,2,1,1,"45,00","52,00","180.000,00",0,,,0,0,0,False,Apartamento,,,[],0,-23.4551201,-51.9241275,"Rua Cantor Raul Seixas, 343 - Jardim Ipanema, Maringá - PR",Rua Cantor Raul Seixas,343,Jardim Ipanema,Maringá,PR,
403,0,,1,1,1,"28,00","0,00","180.000,00",0,,,0,0,0,False,Kitnet e Studio,,,[],0,-23.412497794253746,-51.94683332814465,"Rua Osvaldo Cruz, 789, edifício rio bahia - Zona 07, Maringá - PR",Rua Osvaldo Cruz,789,Zona 07,Maringá,PR,edifício rio bahia
404,0,,1,1,1,"0,00","0,00","180.000,00",0,203,2,0,0,0,False,Apartamento,,,[],0,-23.4209995,-51.9330558,"Rua Piratininga, 691 - Zona 01 Centro, Maringá - PR",Rua Piratininga,691,Zona 01 Centro,Maringá,PR,
405,1,,0,1,1,"26,00","0,00","185.000,00",0,,,0,0,0,False,Apartamento,,,[],0,-23.40976810000000,-51.94229819999998,"Rua Tietê, 130, 806 - Zona 07, Maringá - PR",Rua Tietê,130,Zona 07,Maringá,PR,806
406,0,,2,1,0,"46,98","0,00","185.000,00",0,,,0,0,0,False,Apartamento,,,[],0,-23.4672033,-51.909451,"Rua Pioneiro Paschoal Locatelli, 688, 688 - Conjunto Residencial Cidade Alta, Maringá - PR",Rua Pioneiro Paschoal Locatelli,688,Conjunto Residencial Cidade Alta,Maringá,PR,688
407,0,,2,1,1,"0,00","52,00","185.000,00",0,13,,0,0,0,False,Apartamento,,,[],0,-23.4652963,-51.923044000000004,"Rua Pioneiro João Perin, 649, bl 04 - Parque Tarumã, Maringá - PR",Rua Pioneiro João Perin,649,Parque Tarumã,Maringá,PR,bl 04
408,0,,1,1,1,"25,00","0,00","185.000,00",0,,,0,0,0,False,Apartamento,,,[],0,-23.41097510000000,-51.94193120000000,"Rua Osvaldo Cruz, 263, 402 - Zona 07, Maringá - PR",Rua Osvaldo Cruz,263,Zona 07,Maringá,PR,402
409,1,,0,1,0,"35,00","0,00","185.000,00",0,35,,0,0,0,False,Apartamento,,,[],0,-23.4438967,-51.9375897,"Rua Professor Giampero Monacci, 482 - Jardim Novo Horizonte, Maringá - PR",Rua Professor Giampero Monacci,482,Jardim Novo Horizonte,Maringá,PR,
410,0,,2,0,0,"50,60","0,00","185.000,00",0,,,1,0,0,False,Apartamento,,,"[{'name': 'Financiável', 'order': 6}, {'name': 'Aceita permuta', 'order': 7}]",0,-23.4521807,-51.91689840000001,"Rua Pioneiro João Perin, 1211 - Parque Tarumã, Maringá - PR",Rua Pioneiro João Perin,1211,Parque Tarumã,Maringá,PR,
411,0,,1,1,1,"62,30","62,30","185.000,00",0,18,,0,0,0,False,Apartamento,,,[],0,-23.4399992130777,-51.91437261904907,"Avenida Guedner, 1163, bloco 13 - Zona 08, Maringá - PR",Avenida Guedner,1163,Zona 08,Maringá,PR,bloco 13
412,1,,0,1,1,"54,00","0,00","185.000,00",0,,,0,0,0,False,Kitnet e Studio,,,[],0,-23.4400189,-51.9141795,"Avenida Guedner, 1163, 02 - Zona 08, Maringá - PR",Avenida Guedner,1163,Zona 08,Maringá,PR,02
413,0,,1,1,1,"22,00","52,00","185.000,00",0,,,0,0,0,False,Apartamento,,,[],0,-23.4100448,-51.9414577,"Rua Tietê, 57, ap 502 - Zona 07, Maringá - PR",Rua Tietê,57,Zona 07,Maringá,PR,ap 502
414,0,,3,1,1,"0,00","75,00","185.000,00",0,,2,1,0,0,False,Apartamento,,,[],0,-23.3995395,-51.9317309,"Rua João Luiz Dias, 507 - Parque Residencial Cidade Nova, Maringá - PR",Rua João Luiz Dias,507,Parque Residencial Cidade Nova,Maringá,PR,
415,0,,1,1,0,"21,00","33,00","185.000,00",0,,,0,0,0,False,Apartamento,,,[],0,-23.4076219,-51.9393754,"Rua Professor Lauro Eduardo Werneck, 1023, ap 503 - Zona 07, Maringá - PR",Rua Professor Lauro Eduardo Werneck,1023,Zona 07,Maringá,PR,ap 503
416,0,,1,1,1,"62,30","62,30","185.000,00",0,16,,0,0,0,False,Apartamento,,,[],0,-23.4399992130777,-51.91437261904907,"Avenida Guedner, 1163, bloco 13 - Zona 08, Maringá - PR",Avenida Guedner,1163,Zona 08,Maringá,PR,bloco 13
417,0,,1,1,1,"22,00","0,00","185.000,00",0,,,0,0,0,False,Apartamento,,,[],0,-23.40941690000000,-51.94299569999998,"Rua Bragança, 43, 403 - Zona 07, Maringá - PR",Rua Bragança,43,Zona 07,Maringá,PR,403
418,0,,2,1,0,"0,00","51,00","187.000,00",0,,,1,0,0,False,Apartamento,,,[],0,-23.3912823,-51.9061774,"Rua Chile, 1453 - Ebenezer, Maringá - PR",Rua Chile,1453,Ebenezer,Maringá,PR,
419,0,,2,1,2,"0,00","55,00","189.000,00",0,,,0,0,0,False,Casa,,,[],0,-23.3949879,-51.8913721,"Rua Milton Eduardo Luders, 1573, 1573 - Conjunto João de Barro Itaparica, Maringá - PR",Rua Milton Eduardo Luders,1573,Conjunto João de Barro Itaparica,Maringá,PR,1573
420,1,,1,2,1,"51,92","70,58","190.000,00",0,306,2°,0,0,0,False,Apartamento,,,[],0,-23.403507684427243,-51.931586373610685,"Praça São Benedito, 186, spazio marseille - Vila Esperança, Maringá - PR",Praça São Benedito,186,Vila Esperança,Maringá,PR,spazio marseille
421,0,,1,1,1,"39,00","75,00","190.000,00",0,,,0,0,0,False,Apartamento,,,[],0,-23.4074627,-51.9418421,"Rua Bragança, 789, ap 301 - Zona 07, Maringá - PR",Rua Bragança,789,Zona 07,Maringá,PR,ap 301
422,0,,2,1,1,"46,00","0,00","190.000,00",0,,,0,0,0,False,Apartamento,,,[],0,-23.4645743,-51.9101282,"Rua Pioneiro Paschoal Locatelli,  - Conjunto Residencial Cidade Alta, Maringá - PR",Rua Pioneiro Paschoal Locatelli,,Conjunto Residencial Cidade Alta,Maringá,PR,
423,0,,3,1,1,"55,00","75,00","190.000,00",0,,1,0,0,0,False,Apartamento,,,"[{'name': 'Financiável', 'order': 6}]",0,-23.455362873052,-51.922864601852,"Avenida Guedner, 3060, não possui elevador - Parque da Gávea, Maringá - PR",Avenida Guedner,3060,Parque da Gávea,Maringá,PR,não possui elevador
424,0,,2,1,1,"0,00","60,00","190.000,00",0,,,0,0,0,False,Casa,,,[],0,-23.39525400,-51.96636000,"Rua Tucano, 400 - Conjunto Residencial Ney Braga, Maringá - PR",Rua Tucano,400,Conjunto Residencial Ney Braga,Maringá,PR,
425,0,,2,1,1,"50,00","80,00","190.000,00",0,402,4,0,0,0,False,Apartamento,,,[],0,-23.4645743,-51.9101282,"Rua Pioneiro Paschoal Locatelli, 688, bloco 7 - Loteamento Madrid, Maringá - PR",Rua Pioneiro Paschoal Locatelli,688,Loteamento Madrid,Maringá,PR,bloco 7
426,0,,1,1,0,"21,00","0,00","190.000,00",0,,,0,0,0,False,Kitnet e Studio,,,[],0,-23.4423481,-51.922733,"Rua Doutor Saulo Porto Virmond, 1064, 207 - Chácara Paulista, Maringá - PR",Rua Doutor Saulo Porto Virmond,1064,Chácara Paulista,Maringá,PR,207
427,0,,2,1,1,"46,00","75,00","190.000,00",0,,3,0,0,0,False,Apartamento,,,[],0,-23.4666663,-51.9101340,"Rua Pioneiro Paschoal Locatelli, 606, bl02 ap 33 - Conjunto Residencial Cidade Alta, Maringá - PR",Rua Pioneiro Paschoal Locatelli,606,Conjunto Residencial Cidade Alta,Maringá,PR,bl02 ap 33
428,1,,2,2,2,"82,00","125,00","190.000,00",0,,,0,0,0,False,Apartamento,,,[],0,,,"Rua Vasco da Gama, 243 - Vila Marumby, Maringá - PR",Rua Vasco da Gama,243,Vila Marumby,Maringá,PR,
429,0,,3,1,1,"60,00","60,00","190.000,00",0,02,,0,0,0,False,Apartamento,,,[],0,-23.4487118,-51.9333038,"Rua Monsenhor Tanaka, 300, bloco 03 - Vila Emília, Maringá - PR",Rua Monsenhor Tanaka,300,Vila Emília,Maringá,PR,bloco 03
430,0,,3,1,1,"80,00","80,00","190.000,00",0,,,0,0,0,False,Apartamento,,,[],0,-23.40541200,-51.94601600,"Avenida Doutor Mário Clapier Urbinati, 1125 - Zona 07, Maringá - PR",Avenida Doutor Mário Clapier Urbinati,1125,Zona 07,Maringá,PR,
431,0,,2,1,1,"46,24","46,24","190.000,00",0,34,3,0,0,0,False,Apartamento,,,[],0,-23.4665828,-51.9100293,"Rua Pioneiro Paschoal Locatelli, 606, bloco 5 - Conjunto Residencial Cidade Alta, Maringá - PR",Rua Pioneiro Paschoal Locatelli,606,Conjunto Residencial Cidade Alta,Maringá,PR,bloco 5
432,0,,2,1,1,"47,76","52,25","190.000,00",0,21,2º.A,0,0,0,False,Apartamento,,,"[{'name': 'Financiável', 'order': 6}]",0,-23.4484948,-51.9327841,"Avenida Cerro Azul, 2438 - Zona 02, Maringá - PR",Avenida Cerro Azul,2438,Zona 02,Maringá,PR,
433,0,,1,1,1,"38,00","86,00","190.000,00",0,,,0,0,0,False,Apartamento,,,[],0,-23.4080485,-51.9399746,"Avenida Doutor Mário Clapier Urbinati, 61, ap 202 - Zona 07, Maringá - PR",Avenida Doutor Mário Clapier Urbinati,61,Zona 07,Maringá,PR,ap 202
434,0,,2,1,0,"0,00","80,00","190.000,00",0,,,0,0,0,False,Casa,,,[],0,-23.4109000000000,-51.8704700000000,"Rua Horalino José de Moraes, 104 - Conjunto Habitacional Requião, Maringá - PR",Rua Horalino José de Moraes,104,Conjunto Habitacional Requião,Maringá,PR,
